name,city,countryOne,code,lat,lon,type,countryTwo,id
Goroka Airport,Goroka,Papua New Guinea,GKA,-6.081689835,145.3919983,air,,f8937df9-9f69-405e-be92-e48d5451a682
Madang Airport,Madang,Papua New Guinea,MAG,-5.207079887,145.7890015,air,,37fbdcf3-5c3f-4570-a613-42d853b37385
Mount Hagen Kagamuga Airport,Mount Hagen,Papua New Guinea,HGU,-5.826789856,144.2960052,air,,b9f10026-01c8-4fe7-924b-b4186a66a985
Nadzab Airport,Nadzab,Papua New Guinea,LAE,-6.569803,146.725977,air,,52f75cf1-04d3-4d6e-a0cf-0eeb33524904
Port Moresby Jacksons International Airport,Port Moresby,Papua New Guinea,POM,-9.443380356,147.2200012,air,,875417ad-84ba-4106-a1a3-37313a63ef4b
Wewak International Airport,Wewak,Papua New Guinea,WWK,-3.583830118,143.6690063,air,,7adbfefe-bbf6-44d5-88cc-eace83d94f21
Narsarsuaq Airport,Narssarssuaq,Greenland,UAK,61.16049957,-45.42599869,air,,3f64b59f-aae0-42f1-bec6-4ad1a09b4048
Godthaab / Nuuk Airport,Godthaab,Greenland,GOH,64.19090271,-51.67810059,air,,ee6d4168-0f25-45c5-bbfc-148f86479500
Kangerlussuaq Airport,Sondrestrom,Greenland,SFJ,67.0122219,-50.71160316,air,,24e4fc81-7f9f-4f9c-b619-ebf064b079a5
Thule Air Base,Thule,Greenland,THU,76.53119659,-68.70320129,air,,98223407-d70c-4059-9cf9-c0f1b05f1904
Akureyri Airport,Akureyri,Iceland,AEY,65.66000366,-18.0727005,air,,80cf3672-f2ef-4ae4-a650-d65143d2e25d
Egilsstaðir Airport,Egilsstadir,Iceland,EGS,65.28330231,-14.40139961,air,,636a1695-531c-425d-afd8-7501ab6012eb
Hornafjörður Airport,Hofn,Iceland,HFN,64.295601,-15.2272,air,,003f6f73-8b39-4205-bcec-98984f3f4c39
Húsavík Airport,Husavik,Iceland,HZK,65.952301,-17.426001,air,,5dc4b4f0-a125-49d1-9a58-491290aacd3e
Ísafjörður Airport,Isafjordur,Iceland,IFJ,66.05809784,-23.13529968,air,,90912048-1be6-4b27-8850-cb27d69735fb
Keflavik International Airport,Keflavik,Iceland,KEF,63.98500061,-22.60560036,air,,ba1f9780-77f4-44b3-8f09-281c79f12f2f
Patreksfjörður Airport,Patreksfjordur,Iceland,PFJ,65.555801,-23.965,air,,b8d85c76-7c60-4159-874d-d354c9c98d10
Reykjavik Airport,Reykjavik,Iceland,RKV,64.12999725,-21.94059944,air,,f86b3c55-c2dc-4068-b04a-e7eefd9936e1
Siglufjörður Airport,Siglufjordur,Iceland,SIJ,66.133301,-18.9167,air,,aa9d0bc9-01b1-416f-836a-d27c6fc3df22
Vestmannaeyjar Airport,Vestmannaeyjar,Iceland,VEY,63.42430115,-20.27890015,air,,ce16d083-dd95-4fef-9177-5924e5f2acf9
Sault Ste Marie Airport,Sault Sainte Marie,Canada,YAM,46.48500061,-84.50939941,air,,4ff6a986-ab4c-4e68-8b04-e5fd34b4852f
Winnipeg / St. Andrews Airport,Winnipeg,Canada,,50.0564003,-97.03250122,air,,62ba5410-4384-4a90-8e0c-43d49b4c6cb6
Halifax / CFB Shearwater Heliport,Halifax,Canada,,44.639702,-63.499401,air,,327bbff6-bedc-421b-8565-baa90c1fa090
St. Anthony Airport,St. Anthony,Canada,YAY,51.39189911,-56.08309937,air,,d1cf20ff-b054-4769-aac5-0534ec129c62
Tofino / Long Beach Airport,Tofino,Canada,YAZ,49.079833,-125.775583,air,,b6c8d74e-fa37-4229-a077-6dc9f8a900c7
Kugaaruk Airport,Pelly Bay,Canada,YBB,68.534401,-89.808098,air,,a1d23619-78f6-4bbf-b760-8565074c2795
Baie Comeau Airport,Baie Comeau,Canada,YBC,49.13249969,-68.20439911,air,,5cac4522-e750-49fd-b545-df47300f8e15
CFB Bagotville,Bagotville,Canada,YBG,48.33060074,-70.99639893,air,,d5db4c4c-cb29-4189-bc41-9b6573040044
Baker Lake Airport,Baker Lake,Canada,YBK,64.29889679,-96.07779694,air,,95ce0907-a982-4747-aeae-af49b4b7987d
Campbell River Airport,Campbell River,Canada,YBL,49.95080185,-125.2710037,air,,63fdbdf1-456f-4382-8f1e-da3d51b44df3
Brandon Municipal Airport,Brandon,Canada,YBR,49.91,-99.951897,air,,0a019d24-97e3-4a2e-aabc-f46978bb954b
Cambridge Bay Airport,Cambridge Bay,Canada,YCB,69.10810089,-105.1380005,air,,42a47883-0a71-48c9-a9e1-9d02e9d0f622
Nanaimo Airport,Nanaimo,Canada,YCD,49.05497022,-123.8698626,air,,281122d9-7892-4a3e-ba16-1af63441e2f6
Castlegar/West Kootenay Regional Airport,Castlegar,Canada,YCG,49.29639816,-117.6320038,air,,3a005650-5ce1-4e1b-8984-d67c9f3cb562
Miramichi Airport,Chatham,Canada,YCH,47.007801,-65.449203,air,,8b02a915-afbb-4782-8268-e80e2d458193
Charlo Airport,Charlo,Canada,YCL,47.990799,-66.330299,air,,ca823d7e-adce-49cd-a8ad-a98a0006f27e
Kugluktuk Airport,Coppermine,Canada,YCO,67.816704,-115.143997,air,,6b09bae6-8f7e-47ee-ae05-e995174f556e
Coronation Airport,Coronation,Canada,YCT,52.07500076,-111.4449997,air,,92420d9e-ac7a-4185-9924-5b32d6dc816b
Chilliwack Airport,Chilliwack,Canada,YCW,49.15280151,-121.939003,air,,8850b815-cbef-4528-b61a-cc0dccd3e75b
Clyde River Airport,Clyde River,Canada,YCY,70.48609924,-68.51670074,air,,884b762c-1e31-4dd7-9b0b-9e502162c8fe
Coral Harbour Airport,Coral Harbour,Canada,YZS,64.19329834,-83.35939789,air,,ab1e3501-1d83-47ed-adc1-76a861ffd9f8
Dawson City Airport,Dawson,Canada,YDA,64.04309845,-139.128006,air,,4d32b894-b4ca-4c3b-9fa7-a7698e8a0476
Burwash Airport,Burwash,Canada,YDB,61.37110138,-139.0410004,air,,24fbda90-e20f-46bf-b413-749b7ed9df45
Princeton Airport,Princeton,Canada,,49.4681015,-120.5110016,air,,30290453-d690-43a8-bb63-143fc7bb2b0d
Deer Lake Airport,Deer Lake,Canada,YDF,49.21080017,-57.39139938,air,,43a62b95-0978-46d8-89a0-429bd0e7b671
Dease Lake Airport,Dease Lake,Canada,YDL,58.42219925,-130.0319977,air,,43a3d347-8f61-4f2e-8484-107dce147dac
Dauphin Barker Airport,Dauphin,Canada,YDN,51.10079956,-100.052002,air,,6a539d51-68f8-4095-9d25-e38cb7d2fbaa
Dawson Creek Airport,Dawson Creek,Canada,YDQ,55.74229813,-120.1829987,air,,f20bea0f-20ad-4b82-b85d-6e472f60f92b
Edmonton International Airport,Edmonton,Canada,YEG,53.30970001,-113.5800018,air,,b753e35f-8423-4e71-918a-ef8084a479b3
Arviat Airport,Eskimo Point,Canada,YEK,61.09420013,-94.07080078,air,,076e6cf5-093a-4135-b284-b60848d933bc
Estevan Airport,Estevan,Canada,YEN,49.21030045,-102.9660034,air,,ef1b2c2f-b340-4f4c-935b-9f13a29383d6
Edson Airport,Edson,Canada,YET,53.57889938,-116.4649963,air,,facf7a16-0b22-463a-b6bb-bee9f88020dc
Eureka Airport,Eureka,Canada,YEU,79.99469757,-85.81420136,air,,ad8400aa-a30d-462f-8140-ba9fa4d2862a
Inuvik Mike Zubko Airport,Inuvik,Canada,YEV,68.30419922,-133.4830017,air,,11baef5b-cd33-4ca3-9989-79e510a2a99f
Iqaluit Airport,Iqaluit,Canada,YFB,63.756402,-68.555801,air,,37ced693-b8c4-45fc-8097-1befda656edd
Fredericton Airport,Fredericton,Canada,YFC,45.8689003,-66.53720093,air,,24e63a57-5479-4b4e-8f9d-4bfb5d380c15
Forestville Airport,Forestville,Canada,YFE,48.74610138,-69.09719849,air,,bb051c0c-18c3-4def-847c-2fd4193e3517
Flin Flon Airport,Flin Flon,Canada,YFO,54.67810059,-101.6819992,air,,95b6a804-f55e-4e20-a053-1da7894b50e9
Fort Resolution Airport,Fort Resolution,Canada,YFR,61.18080139,-113.6900024,air,,57c24eda-62b7-488f-9d1c-0b7a45ca4bf8
Fort Simpson Airport,Fort Simpson,Canada,YFS,61.7602005,-121.2369995,air,,391a10d0-b2c5-4251-90ee-d7fa7ca53efc
Kingston Norman Rogers Airport,Kingston,Canada,YGK,44.22529984,-76.59690094,air,,5c68b3de-d78f-4133-a1ab-25c72e26a5b7
La Grande Rivière Airport,La Grande Riviere,Canada,YGL,53.62530136,-77.70420074,air,,09b7fc51-b0a0-4f15-9d13-cda4875cf089
Gaspé (Michel-Pouliot) Airport,Gaspe,Canada,YGP,48.77529907,-64.47859955,air,,eba54720-13f1-4cff-ba31-f8d69024f0e3
Geraldton Greenstone Regional Airport,Geraldton,Canada,YGQ,49.77830124,-86.93939972,air,,44860709-0f58-49a3-9018-b640a407e14b
Îles-de-la-Madeleine Airport,Iles De La Madeleine,Canada,YGR,47.42470169,-61.77809906,air,,6e76be60-d1bc-42b7-bf76-df6993d1319e
Hudson Bay Airport,Hudson Bay,Canada,YHB,52.81669998,-102.310997,air,,1579eadf-4102-45e1-a4c9-136b2a741dc0
Dryden Regional Airport,Dryden,Canada,YHD,49.831699,-92.744202,air,,575d8c1b-d74c-490e-b265-cfabf448f744
Ulukhaktok Holman Airport,Holman Island,Canada,YHI,70.76280212,-117.8059998,air,,33510ec5-6596-436b-a72e-623ce4276827
Gjoa Haven Airport,Gjoa Haven,Canada,YHK,68.63559723,-95.84970093,air,,1b422c2f-5a04-43d0-b86c-df835fed9454
John C. Munro Hamilton International Airport,Hamilton,Canada,YHM,43.17359924,-79.93499756,air,,77d30227-1969-4138-8e74-c7585273428d
Montréal / Saint-Hubert Airport,Montreal,Canada,YHU,45.51750183,-73.41690063,air,,784f728f-e452-43a9-832c-17598fccb91b
Hay River / Merlyn Carter Airport,Hay River,Canada,YHY,60.83969879,-115.7829971,air,,b4900e7c-3643-487f-a74f-e568f195e34e
Halifax / Stanfield International Airport,Halifax,Canada,YHZ,44.88079834,-63.50859833,air,,54582d2a-f690-4186-a874-ebe321374b2b
Atikokan Municipal Airport,Atikokan,Canada,YIB,48.77389908,-91.63860321,air,,ace07104-9c01-479a-9953-fea50816f6b3
Pond Inlet Airport,Pond Inlet,Canada,YIO,72.6832962,-77.96669769,air,,3dc88824-7f4c-42ae-89e8-7eeb935cec5f
St Jean Airport,St. Jean,Canada,YJN,45.29439926,-73.28109741,air,,0b9e5113-ff75-4cf5-8e1c-e38038d6efc2
Stephenville Airport,Stephenville,Canada,YJT,48.5442009,-58.54999924,air,,904aa5e8-6831-4a2a-b7b0-7ffa5b74166e
Kamloops Airport,Kamloops,Canada,YKA,50.70220184,-120.4440002,air,,6cde8b3b-de89-436c-98ee-7e116e641802
Waterloo Airport,Waterloo,Canada,YKF,43.46080017,-80.37860107,air,,a07ad5b9-9a58-4f7e-bddd-f691fb601a1c
Schefferville Airport,Schefferville,Canada,YKL,54.80530167,-66.80529785,air,,3be39df7-6d86-4ce7-9d5c-3f261c80c41f
Kindersley Airport,Kindersley,Canada,YKY,51.51750183,-109.1809998,air,,9e0f4efa-4d15-48e2-bc2c-b514862f7386
Buttonville Municipal Airport,Toronto,Canada,YKZ,43.86220169,-79.37000275,air,,870d3ba8-09cd-4772-a46d-737cb15ebc2b
Chapleau Airport,Chapleau,Canada,YLD,47.81999969,-83.34670258,air,,17216583-9f04-4946-b17a-f92bfe8a90d8
Meadow Lake Airport,Meadow Lake,Canada,YLJ,54.12530136,-108.5230026,air,,9621fed5-0b02-42a4-a85f-89f0ad4d1942
Lloydminster Airport,Lloydminster,Canada,YLL,53.30920029,-110.072998,air,,80149b2e-944c-435b-a926-588a16757c48
Alert Airport,Alert,Canada,YLT,82.51779938,-62.2806015,air,,d7f18dba-7d5e-4f39-8f74-78250721a54a
Kelowna International Airport,Kelowna,Canada,YLW,49.95610046,-119.3779984,air,,7dc570cb-fcad-46d1-90fa-72e99c338549
Mayo Airport,Mayo,Canada,YMA,63.61640167,-135.8679962,air,,f5e7ed25-dc23-4033-b927-d538207dda3a
Moose Jaw Air Vice Marshal C. M. McEwen Airport,Moose Jaw,Canada,YMJ,50.33029938,-105.5589981,air,,95a88047-865b-4497-bad2-3997d9ed91a2
Fort McMurray Airport,Fort Mcmurray,Canada,YMM,56.65330124,-111.2220001,air,,4085da9b-4a71-4601-b48e-ab44c3759750
Moosonee Airport,Moosonee,Canada,YMO,51.29109955,-80.60780334,air,,3417123d-4c74-45ad-85e6-a4c55bcf4afa
Maniwaki Airport,Maniwaki,Canada,YMW,46.27280045,-75.99060059,air,,62114e01-bbbb-4d87-af7d-e2ad9892c06d
Montreal International (Mirabel) Airport,Montreal,Canada,YMX,45.679501,-74.038696,air,,f83b944e-7428-4241-903d-82e73e1cde03
Natashquan Airport,Natashquan,Canada,YNA,50.18999863,-61.78919983,air,,38eb7aa5-4cb3-4d91-93c4-2bdaeb1c8c3b
Ottawa / Gatineau Airport,Gatineau,Canada,YND,45.52170181,-75.56359863,air,,7e0e8dda-a287-4ab0-961b-63e5dd42e99e
Matagami Airport,Matagami,Canada,YNM,49.76169968,-77.80280304,air,,8b0dd34e-1f12-444b-964d-e7c672b4a21d
Old Crow Airport,Old Crow,Canada,YOC,67.57060242,-139.8390045,air,,692084cf-bcbf-4030-a754-a723469e957f
CFB Cold Lake,Cold Lake,Canada,YOD,54.40499878,-110.2789993,air,,6f7f7b3b-57bd-4db6-8e33-4e28ca38bdfe
High Level Airport,High Level,Canada,YOJ,58.62139893,-117.1650009,air,,2a2dc33f-0b04-4f78-958c-f158a243e995
Ottawa Macdonald-Cartier International Airport,Ottawa,Canada,YOW,45.32249832,-75.66919708,air,,415d9f02-f1c9-4e84-8be8-e961aceb2601
Prince Albert Glass Field,Prince Albert,Canada,YPA,53.21419907,-105.6729965,air,,e0f7d67d-5c8f-4903-b549-be917b0fb0fa
Peace River Airport,Peace River,Canada,YPE,56.226898,-117.446999,air,,1ad9d121-f2cc-43ad-b808-154961198585
Southport Airport,Portage-la-prairie,Canada,YPG,49.903099,-98.273817,air,,0863f705-019d-4588-9f2d-4007dcc48bce
Pitt Meadows Airport,Pitt Meadows,Canada,,49.21609879,-122.7099991,air,,fd790de8-f088-48f7-a5e8-8d457ef9cc5a
Pickle Lake Airport,Pickle Lake,Canada,YPL,51.44639969,-90.21420288,air,,e299712a-8969-4b4b-8ba2-4f4804392bc7
Port Menier Airport,Port Menier,Canada,YPN,49.83639908,-64.28859711,air,,7b6dc174-e5a6-4496-a5b5-3b671400fca5
Peterborough Airport,Peterborough,Canada,YPQ,44.22999954,-78.36329651,air,,ae3fa880-29ca-4c9a-939b-b232c35d6e8e
Prince Rupert Airport,Prince Pupert,Canada,YPR,54.28609848,-130.4450073,air,,3a0569e1-c78b-48a1-be9d-d1e0e0cc3f16
Fort Chipewyan Airport,Fort Chipewyan,Canada,YPY,58.76720047,-111.1169968,air,,03ed8e3f-525d-40c5-b9bd-3f1d390ee678
Muskoka Airport,Muskoka,Canada,YQA,44.97470093,-79.30329895,air,,1aaf595a-c502-4dae-a19c-a0b5f44f34fb
Quebec Jean Lesage International Airport,Quebec,Canada,YQB,46.7911,-71.393303,air,,17132d04-115c-499e-a24b-0516f3498644
Red Deer Regional Airport,Red Deer Industrial,Canada,YQF,52.18220139,-113.8939972,air,,33f9a648-8015-47ec-b9d7-79ec67b39293
Windsor Airport,Windsor,Canada,YQG,42.27560043,-82.95559692,air,,bae46c88-9a78-4b4e-b560-c77e5091e618
Watson Lake Airport,Watson Lake,Canada,YQH,60.11640167,-128.8220062,air,,165f48f8-ebce-45fe-b27d-6cd34a66bfe0
Kenora Airport,Kenora,Canada,YQK,49.78829956,-94.36309814,air,,3bc87d9d-4379-49ae-bc84-f8dabc37127a
Lethbridge County Airport,Lethbridge,Canada,YQL,49.63029861,-112.8000031,air,,3a8df6d2-a640-4d66-a72f-b158b3d86031
Greater Moncton International Airport,Moncton,Canada,YQM,46.11220169,-64.6785965,air,,87bb5448-c5e8-43bd-9993-e3ada5922909
Comox Airport,Comox,Canada,YQQ,49.71080017,-124.887001,air,,ed63aa0f-8f1d-4450-9d93-eeadc1731021
Regina International Airport,Regina,Canada,YQR,50.43190002,-104.6660004,air,,368bccc6-e7f0-4f72-a104-460bd231e8af
Thunder Bay Airport,Thunder Bay,Canada,YQT,48.37189865,-89.32389832,air,,eb153a7e-4b3b-40dc-8204-aee23bba03fe
Grande Prairie Airport,Grande Prairie,Canada,YQU,55.17969894,-118.8850021,air,,8d02c9a1-e80f-4dff-97d0-fed9926e11f1
Yorkton Municipal Airport,Yorkton,Canada,YQV,51.26470184,-102.461998,air,,ca411d55-2bd5-44c0-8e32-e040480e06ad
North Battleford Airport,North Battleford,Canada,YQW,52.76919937,-108.2440033,air,,c1762e5e-e4bb-4323-8936-8b3e40e44980
Gander International Airport,Gander,Canada,YQX,48.93690109,-54.56809998,air,,85c43014-1e70-4e62-b56b-d9af8b07a13a
Sydney / J.A. Douglas McCurdy Airport,Sydney,Canada,YQY,46.1614,-60.047798,air,,f2296ec3-d9b5-4c4c-9b99-52d2cbe0e91b
Quesnel Airport,Quesnel,Canada,YQZ,53.02610016,-122.5100021,air,,58776f0f-26cc-410c-b2da-db1cea6f4d73
Resolute Bay Airport,Resolute,Canada,YRB,74.71690369,-94.9693985,air,,38dbf45e-517f-47de-95a3-69641750759e
Rivière-du-Loup Airport,Riviere Du Loup,Canada,YRI,47.76440048,-69.58470154,air,,936d0db1-4bd9-4311-9661-69f79d0c63d6
Roberval Airport,Roberval,Canada,YRJ,48.52000046,-72.26560211,air,,33afad29-0982-43b4-b457-478df34af4f9
Rocky Mountain House Airport,Rocky Mountain House,Canada,YRM,52.42969894,-114.9039993,air,,04946909-48f2-4080-ba16-c8909d877571
Rankin Inlet Airport,Rankin Inlet,Canada,YRT,62.81140137,-92.11579895,air,,2faf46da-eeff-4c15-9969-f3d4ce86b1da
Sudbury Airport,Sudbury,Canada,YSB,46.625,-80.79889679,air,,64b3b7f1-3772-4dbf-89e2-adfc8773bf4d
Sherbrooke Airport,Sherbrooke,Canada,YSC,45.43859863,-71.69139862,air,,5f56d23e-ca83-47e0-a16b-1e999f3b2b25
Saint John Airport,St. John,Canada,YSJ,45.31610107,-65.89029694,air,,ea781b03-25d5-4f02-95f2-8293fc9bc82a
Fort Smith Airport,Fort Smith,Canada,YSM,60.02030182,-111.961998,air,,b848a224-9dde-484c-b430-2542b0335fe3
Nanisivik Airport,Nanisivik,Canada,YSR,72.982201,-84.613602,air,,7dca1450-b76d-4dba-8f85-95b967abdb77
Summerside Airport,Summerside,Canada,YSU,46.44060135,-63.83359909,air,,62a23c17-9860-4a92-8455-f218ba046294
Sachs Harbour (David Nasogaluak Jr. Saaryuaq) Airport,Sachs Harbour,Canada,YSY,71.99389648,-125.2429962,air,,570b4ed3-53db-43b7-b649-3fe1fd0aa0f4
Cape Dorset Airport,Cape Dorset,Canada,YTE,64.23000336,-76.52670288,air,,883bdee3-a817-407b-87fa-01d784be1cac
Thompson Airport,Thompson,Canada,YTH,55.80110168,-97.86419678,air,,f5b6ac06-90c9-4a9d-b412-8285cef82ccb
CFB Trenton,Trenton,Canada,YTR,44.1189003,-77.52809906,air,,fe16a26f-fb06-4f56-b47d-49ef15f718f1
Timmins/Victor M. Power,Timmins,Canada,YTS,48.56969833,-81.37670136,air,,adf8106c-07fa-4bb7-b0a3-888acd8a5aab
Billy Bishop Toronto City Centre Airport,Toronto,Canada,YTZ,43.627499,-79.396202,air,,4c88f908-c939-4f4b-a9fa-d3b540ae136a
Tuktoyaktuk Airport,Tuktoyaktuk,Canada,YUB,69.4332962,-133.026001,air,,cd13523d-d633-4964-88a2-b6a952a9fe04
Montreal / Pierre Elliott Trudeau International Airport,Montreal,Canada,YUL,45.47060013,-73.74079895,air,,1a86b54f-d125-43c8-99aa-09d67c7591b5
Repulse Bay Airport,Repulse Bay,Canada,YUT,66.52140045,-86.22470093,air,,1a402726-ef1b-4491-ae34-b0a7144380a4
Hall Beach Airport,Hall Beach,Canada,YUX,68.77610016,-81.2425,air,,b12c92ac-2112-4fe3-b0b1-934b02624922
Rouyn Noranda Airport,Rouyn,Canada,YUY,48.20610046,-78.83560181,air,,b06ef7fb-a06a-45bf-82ec-d1ac1f945fb9
La Ronge Airport,La Ronge,Canada,YVC,55.15140152,-105.262001,air,,1073030d-9d0f-4d5e-b90d-764333ef830a
Vermilion Airport,Vermillion,Canada,YVG,53.35580063,-110.8239975,air,,874cd6e2-0c21-45c5-99cc-00f8924b2312
Qikiqtarjuaq Airport,Broughton Island,Canada,YVM,67.54579926,-64.03140259,air,,8fea2c2c-8dd1-4df7-b5fc-b293a82911ab
Val-d'Or Airport,Val D'or,Canada,YVO,48.05329895,-77.78279877,air,,3e615f31-e6fd-4f2d-b3b9-23f0b609d348
Kuujjuaq Airport,Quujjuaq,Canada,YVP,58.09609985,-68.42690277,air,,62401805-bb7e-40c2-8016-c42343d82f7c
Norman Wells Airport,Norman Wells,Canada,YVQ,65.28160095,-126.7979965,air,,93f966bd-f9b7-447a-85a2-859d72b73b68
Vancouver International Airport,Vancouver,Canada,YVR,49.19390106,-123.1839981,air,,131b050c-7b3a-4d34-b72d-ea094b79c76e
Buffalo Narrows Airport,Buffalo Narrows,Canada,YVT,55.84189987,-108.4179993,air,,9213291f-b9b6-4604-bfb6-89cb7c034c85
Wiarton Airport,Wiarton,Canada,YVV,44.7458,-81.107201,air,,caf2391e-47b8-4280-9946-28ebd6afcd14
Petawawa Airport,Petawawa,Canada,YWA,45.95220184,-77.31919861,air,,f1627f6e-1a5a-49ed-8c93-e5cedbfaf282
Winnipeg / James Armstrong Richardson International Airport,Winnipeg,Canada,YWG,49.90999985,-97.23989868,air,,d2985727-66c7-4431-abfe-3ec67a1f036d
Wabush Airport,Wabush,Canada,YWK,52.9219017,-66.86440277,air,,b0ada311-7b3a-40d0-b77f-160f669ae8a7
Williams Lake Airport,Williams Lake,Canada,YWL,52.18310165,-122.0540009,air,,6c0961fd-7c64-43cf-8813-d7ecdcc67189
Wrigley Airport,Wrigley,Canada,YWY,63.20940018,-123.4369965,air,,7ba91082-84e2-42ca-8273-a01aa925e1b6
Cranbrook/Canadian Rockies International Airport,Cranbrook,Canada,YXC,49.6108017,-115.7819977,air,,1aadf3e0-0752-4e07-8e1b-7c6ea43ec733
Edmonton City Centre (Blatchford Field) Airport,Edmonton,Canada,YXD,53.57249832,-113.5210037,air,,e8caf3c3-cfe4-445a-8f79-4d12eebee315
Saskatoon John G. Diefenbaker International Airport,Saskatoon,Canada,YXE,52.17079926,-106.6999969,air,,b0297a73-5620-4b3f-a324-973c54cf7343
Medicine Hat Airport,Medicine Hat,Canada,YXH,50.01890182,-110.7210007,air,,f3a63319-16c2-4406-9af2-b3cc5ba19374
Fort St John Airport,Fort Saint John,Canada,YXJ,56.23809814,-120.7399979,air,,b8271de4-0ad2-4702-91b5-8f056cf8346d
Sioux Lookout Airport,Sioux Lookout,Canada,YXL,50.11389923,-91.90529633,air,,c95baee3-102d-4149-aa97-f1d5a74e7622
Pangnirtung Airport,Pangnirtung,Canada,YXP,66.14499664,-65.71360016,air,,381bf42d-5b44-4ce9-b038-ae809ebb36a7
Earlton (Timiskaming Regional) Airport,Earlton,Canada,YXR,47.69740065,-79.84734535,air,,5812ce84-73b7-434c-8a49-c325d076cbf0
Prince George Airport,Prince George,Canada,YXS,53.88940048,-122.6790009,air,,8d0130b3-c665-4115-83c4-6df952a4d700
Northwest Regional Airport Terrace-Kitimat,Terrace,Canada,YXT,54.468498,-128.576009,air,,561a367e-cc16-4e00-a0d8-b007b72a7fc1
London Airport,London,Canada,YXU,43.035599,-81.1539,air,,02f5d62c-dcbc-48d6-a8b7-5fa057259247
Abbotsford Airport,Abbotsford,Canada,YXX,49.02529907,-122.3610001,air,,95518a9e-ff6e-439b-ade3-6ebfa7e1de9e
Whitehorse / Erik Nielsen International Airport,Whitehorse,Canada,YXY,60.70959854,-135.0670013,air,,d3a45364-f071-40c0-966e-d6cc92e5d602
North Bay Jack Garland Airport,North Bay,Canada,YYB,46.363602,-79.422798,air,,ab3789ce-96f4-4452-b8c4-842e58b5cbe1
Calgary International Airport,Calgary,Canada,YYC,51.11389923,-114.0199966,air,,2a3a52b6-4587-40f1-b49a-633e31d687b5
Smithers Airport,Smithers,Canada,YYD,54.8246994,-127.1829987,air,,7ffc8266-ff3d-4230-b349-a63c3e3a8c94
Fort Nelson Airport,Fort Nelson,Canada,YYE,58.83639908,-122.5970001,air,,5b0367a5-c9ff-4484-8241-e7e7df43cb1a
Penticton Airport,Penticton,Canada,YYF,49.46310043,-119.6019974,air,,2c08b7d5-8f39-4e0a-9f2d-d2b8c02b05c1
Charlottetown Airport,Charlottetown,Canada,YYG,46.29000092,-63.12110138,air,,d3f177b6-bb10-41ad-b616-73244f0fd75b
Taloyoak Airport,Spence Bay,Canada,YYH,69.54669952,-93.5766983,air,,22d6b136-e5ca-4a65-a22a-6d20ea7e8c34
Victoria International Airport,Victoria,Canada,YYJ,48.64690018,-123.4260025,air,,9f7005a5-5097-40b3-af42-e3975a418c0b
Lynn Lake Airport,Lynn Lake,Canada,YYL,56.86389923,-101.0759964,air,,e53e6246-9e83-4cc1-b860-9722e18572c2
Swift Current Airport,Swift Current,Canada,YYN,50.29190063,-107.6910019,air,,4901a4c7-d76c-4367-a1a1-2dd6c5aeecf8
Churchill Airport,Churchill,Canada,YYQ,58.73920059,-94.06500244,air,,2c1c116d-5b8d-4a3c-b33d-77f8403a749c
Goose Bay Airport,Goose Bay,Canada,YYR,53.31919861,-60.42580032,air,,5e35d05a-ea17-44bb-806b-df85ed2cb174
St. John's International Airport,St. John's,Canada,YYT,47.61859894,-52.75189972,air,,2b5c2397-0013-406f-9b1c-c69102fa85a1
Kapuskasing Airport,Kapuskasing,Canada,YYU,49.41389847,-82.46749878,air,,3343ccf4-436b-4698-a951-a6d15f304d4d
Armstrong Airport,Armstrong,Canada,YYW,50.29029846,-88.90969849,air,,f104b427-4449-4361-8e78-4988b8857668
Mont Joli Airport,Mont Joli,Canada,YYY,48.60860062,-68.20809937,air,,15541d69-b0fe-429c-bf36-4d5ab02636ba
Lester B. Pearson International Airport,Toronto,Canada,YYZ,43.67720032,-79.63059998,air,,e15e0ead-fdf6-4719-bcb4-cce3d216e611
Downsview Airport,Toronto,Canada,YZD,43.74250031,-79.46559906,air,,11838168-7cf7-4b6a-af96-5c82d4e0d841
Gore Bay Manitoulin Airport,Gore Bay,Canada,YZE,45.88529968,-82.56780243,air,,840d45e3-d9e0-4d69-a422-372c837c5bcc
Yellowknife Airport,Yellowknife,Canada,YZF,62.46279907,-114.4400024,air,,e277b986-7d0b-4506-8739-016e31261362
Slave Lake Airport,Slave Lake,Canada,YZH,55.29309845,-114.7770004,air,,0d9f257e-1fe0-465c-8a38-726b008e7f24
Sandspit Airport,Sandspit,Canada,YZP,53.25429916,-131.8139954,air,,641a4cff-9698-4007-b92a-633433e10ec0
Chris Hadfield Airport,Sarnia,Canada,YZR,42.99940109,-82.30889893,air,,134b5dc2-ed73-481c-b6f4-7bab661e0525
Port Hardy Airport,Port Hardy,Canada,YZT,50.68059921,-127.3669968,air,,8c90bc60-190d-491a-901f-f2a7ca815c18
Whitecourt Airport,Whitecourt,Canada,YZU,54.14390182,-115.7870026,air,,407fedd0-89d3-42b1-9ad6-fba34ced9d8f
Sept-Îles Airport,Sept-iles,Canada,YZV,50.22330093,-66.26560211,air,,46cef607-14c5-4fe6-b642-b3f459f01d0e
Teslin Airport,Teslin,Canada,YZW,60.17279816,-132.7429962,air,,1b25ca8c-aae6-4f1f-8a81-5db72d7c566c
CFB Greenwood,Greenwood,Canada,YZX,44.9844017,-64.91690063,air,,362fdb33-b8b7-453d-8fb7-cbd2210a52a7
Faro Airport,Faro,Canada,ZFA,62.20750046,-133.3760071,air,,7a22506d-d64d-4ba9-b155-2766d03e78a1
Fort Mcpherson Airport,Fort Mcpherson,Canada,ZFM,67.40750122,-134.8609924,air,,62ebcabd-23b1-47f1-8957-0a13435c3414
Blida Airport,Blida,Algeria,QLD,36.50360107,2.814169884,air,,623125a1-1c93-44eb-971b-589e0ab40d6d
Bou Saada Airport,Bou Saada,Algeria,BUJ,35.33250046,4.206389904,air,,798317a7-a89d-4a4a-83d1-7e0f17b4ce4c
Soummam Airport,Bejaja,Algeria,BJA,36.7120018,5.069920063,air,,2b489521-619a-4fac-9dec-47ae1ac7ee12
Houari Boumediene Airport,Algier,Algeria,ALG,36.69100189,3.215409994,air,,da284545-b1c2-40f9-b1b7-a49b4d415c94
Djanet Inedbirene Airport,Djanet,Algeria,DJG,24.292801,9.45244,air,,92bdd161-9c4a-4c0a-8f31-d5c28af659df
Boufarik Airport,Boufarik,Algeria,,36.545799,2.87611,air,,43bebc7a-f6b2-4952-bdeb-74bfed947f23
Reggane Airport,Reggan,Algeria,,26.7101,0.285647,air,,dca2cef8-2783-4b83-813d-fd4453886609
Illizi Takhamalt Airport,Illizi,Algeria,VVZ,26.7234993,8.622650146,air,,4f7c59ef-50c1-4977-b530-8a995e4b8f0e
Ain Oussera Airport,Ain Oussera,Algeria,,35.52539825,2.878710032,air,,19486fdb-4137-4457-a406-364c2936c2c2
Aguenar – Hadj Bey Akhamok Airport,Tamanrasset,Algeria,TMR,22.81150055,5.451079845,air,,0afed83f-ef08-4dbe-91ab-356b702746df
Jijel Ferhat Abbas Airport,Jijel,Algeria,GJL,36.79510117,5.87361002,air,,f089c018-c697-4e5e-95d1-4264324bccf9
Mecheria Airport,Mecheria,Algeria,MZW,33.53590012,-0.242353007,air,,82b40212-547a-4541-82ff-545b38f7c673
Relizane Airport,Relizane,Algeria,,35.752201,0.626272,air,,74071021-d0dd-4f2f-9844-f6db45589537
Rabah Bitat Airport,Annaba,Algeria,AAE,36.822201,7.809174,air,,9cc1a887-b289-4789-80c6-b37729cf0f7f
Mohamed Boudiaf International Airport,Constantine,Algeria,CZL,36.27600098,6.620389938,air,,84ef3e90-6c0c-49bf-93df-7dee9708dfb8
Cheikh Larbi Tébessi Airport,Tebessa,Algeria,TEE,35.43159866,8.12071991,air,,06ebea37-f471-46da-929e-557ac780fe6a
Hassi R'Mel Airport,Tilrempt,Algeria,HRM,32.93040085,3.311539888,air,,221ee0f6-f566-4480-83fd-55d785a8836d
Bou Chekif Airport,Tiaret,Algeria,TID,35.34109879,1.463150024,air,,a51fc727-da0f-42ef-aa65-c75b6edb0c48
Bou Sfer Airport,Bou Sfer,Algeria,,35.73540115,-0.805388987,air,,f7798635-6ddf-4a0d-b857-e28ae740bf84
Tindouf Airport,Tindouf,Algeria,TIN,27.7003994,-8.167099953,air,,58ed5f06-b124-4635-8c63-322d976554fe
Ech Cheliff Airport,Ech-cheliff,Algeria,CFK,36.21269989,1.331769943,air,,39b03840-b26e-4623-9b1d-9d6fb0e9e471
Tafaraoui Airport,Oran,Algeria,TAF,35.54240036,-0.532278001,air,,ee1a1e9c-ea22-48e3-afcd-aabc125d9b23
Zenata – Messali El Hadj Airport,Tlemcen,Algeria,TLM,35.01670074,-1.450000048,air,,e1afe9a5-1b6d-41e6-84a4-db08cabdd132
Es Senia Airport,Oran,Algeria,ORN,35.62390137,-0.621182978,air,,32d7a738-f38d-4dc8-9376-b92a417282c3
Sidi Bel Abbes Airport,Sidi Bel Abbes,Algeria,BFW,35.17179871,-0.593275011,air,,d2368398-2c27-4513-90f2-34ab9cd90049
Ghriss Airport,Ghriss,Algeria,MUW,35.20769882,0.147141993,air,,9f32d111-7390-4753-94fd-29d9df7bda5e
Touat Cheikh Sidi Mohamed Belkebir Airport,Adrar,Algeria,AZR,27.83760071,-0.186414003,air,,69656085-ed43-4b98-92b4-28aea2a986ce
Biskra Airport,Biskra,Algeria,BSK,34.79330063,5.738230228,air,,c29e1c29-60b6-4615-b17a-7af42010cf72
El Golea Airport,El Golea,Algeria,ELG,30.57130051,2.859590054,air,,da4dc0e6-68ba-4de1-98bc-f3cc3a3a5211
Noumérat - Moufdi Zakaria Airport,Ghardaia,Algeria,GHA,32.38410187,3.79411006,air,,cbe1046c-29b1-4024-bef0-2e2f7d9d6a0f
Oued Irara Airport,Hassi Messaoud,Algeria,HME,31.67300034,6.140439987,air,,be77c722-6112-48d9-a5b5-c7a6bed814cc
In Salah Airport,In Salah,Algeria,INZ,27.25099945,2.512020111,air,,6fe37fcd-1631-4b6d-b060-2bfad8a725f7
Touggourt Sidi Madhi Airport,Touggourt,Algeria,TGR,33.06779861,6.088669777,air,,a2247e4b-88ae-4b9a-a2f3-61a575c4bc9b
Laghouat Airport,Laghouat,Algeria,LOO,33.76440048,2.928339958,air,,47678547-5b44-45c3-bf72-79d4f495b86b
Timimoun Airport,Timimoun,Algeria,TMX,29.2371006,0.276033014,air,,e19600a2-4417-45e7-ad80-460eb2b9c12e
Ain el Beida Airport,Ouargla,Algeria,OGX,31.91720009,5.412779808,air,,fadb06e7-0936-44e8-bddf-79e4aa9de384
In Aménas Airport,Zarzaitine,Algeria,IAM,28.0515,9.64291,air,,2ee3cfd1-7133-4ce0-8197-dbbaaa13f2fa
Cadjehoun Airport,Cotonou,Benin,COO,6.357230186,2.384350061,air,,0fab32b3-8436-4b40-94e5-8cba543a6953
Ouagadougou Airport,Ouagadougou,Burkina Faso,OUA,12.3532,-1.51242,air,,c26dc123-5785-44ce-be6b-f5e9dea4c74e
Bobo Dioulasso Airport,Bobo-dioulasso,Burkina Faso,BOY,11.16009998,-4.33096981,air,,6d26892d-58c2-4d07-b4ad-233e0e301fe9
Kotoka International Airport,Accra,Ghana,ACC,5.6051898,-0.166786,air,,980b4fa2-d2f9-413a-8fc8-7729b7bb5479
Tamale Airport,Tamale,Ghana,TML,9.557189941,-0.863214016,air,,d57f1107-9055-44f7-9b34-c21396564245
Wa Airport,Wa,Ghana,,10.08269978,-2.507689953,air,,b20ff5a9-98f8-4e73-a96c-b84f2f82bb0b
Sunyani Airport,Sunyani,Ghana,NYI,7.361830235,-2.328759909,air,,2ea585e5-e307-4622-ba44-f316040c34ec
Takoradi Airport,Takoradi,Ghana,TKD,4.89605999,-1.774760008,air,,3899352d-8ea7-4995-b61d-062d94dbe594
Port Bouet Airport,Abidjan,Cote d'Ivoire,ABJ,5.261390209,-3.926290035,air,,f4a8a809-a9b1-4858-92bb-1eb551738b2d
Bouaké Airport,Bouake,Cote d'Ivoire,BYK,7.738800049,-5.07366991,air,,8cd2874f-508b-47d8-aac0-bc265e99eb48
Daloa Airport,Daloa,Cote d'Ivoire,DJO,6.792809963,-6.473189831,air,,c5ed2d5f-c0c9-44be-bd70-4f250640a19a
Korhogo Airport,Korhogo,Cote d'Ivoire,HGO,9.387180328,-5.556660175,air,,fdf46b85-098c-4846-89fe-65cb616a573a
Man Airport,Man,Cote d'Ivoire,MJC,7.272069931,-7.587359905,air,,83d4d51e-3b02-47c9-8cab-7143b5bfffcd
San Pedro Airport,San Pedro,Cote d'Ivoire,SPY,4.746719837,-6.660820007,air,,0edf2e37-2911-43c6-9ff7-19330ef8259d
Yamoussoukro Airport,Yamoussoukro,Cote d'Ivoire,ASK,6.903170109,-5.365580082,air,,07ad5c2b-6506-44d9-8959-c777eeaf7799
Nnamdi Azikiwe International Airport,Abuja,Nigeria,ABV,9.006790161,7.263169765,air,,6baa5208-013d-4c3d-86ab-463576595b24
Akure Airport,Akure,Nigeria,AKR,7.246739864,5.301010132,air,,02e4f945-9668-4e88-b9d8-40842fdf4a8b
Benin Airport,Benin,Nigeria,BNI,6.316979885,5.599500179,air,,586493c0-807e-40aa-b270-90891d7a2e32
Margaret Ekpo International Airport,Calabar,Nigeria,CBQ,4.976019859,8.347200394,air,,fc62cd43-5ae3-4c5f-b39f-64b1f35cabf7
Akanu Ibiam International Airport,Enugu,Nigeria,ENU,6.474269867,7.56196022,air,,08439411-4235-405f-92ef-ebc9122cfe87
Gusau Airport,Gusau,Nigeria,,12.1717,6.69611,air,,e8fcddca-1ecc-407b-ba41-b0779b435f03
Ibadan Airport,Ibadan,Nigeria,IBA,7.362460136,3.978329897,air,,eddd0261-ab0b-4fd3-aadb-fd897277bac6
Ilorin International Airport,Ilorin,Nigeria,ILR,8.440210342,4.493919849,air,,6d182984-529a-40ac-b1b9-df9aea48dce0
Yakubu Gowon Airport,Jos,Nigeria,JOS,9.639829636,8.869050026,air,,9a56a8f0-a71a-4137-a9fb-1e57ee56c19c
Kaduna Airport,Kaduna,Nigeria,KAD,10.6960001,7.320109844,air,,bc3204f5-5556-415c-9653-7d32a8f39d55
Mallam Aminu International Airport,Kano,Nigeria,KAN,12.0476,8.52462,air,,d5629b6f-0b2f-478c-9bf8-8af4ee10eed9
Maiduguri International Airport,Maiduguri,Nigeria,MIU,11.85529995,13.08090019,air,,431e8911-7344-4aeb-83ae-e68b7899be8a
Makurdi Airport,Makurdi,Nigeria,MDI,7.70388,8.61394,air,,d3f1e735-ea70-493e-8fd1-05b9990de02b
Murtala Muhammed International Airport,Lagos,Nigeria,LOS,6.577370167,3.321160078,air,,64b7858e-ee96-4127-bb50-afff6e33ff62
Minna Airport,Minna,Nigeria,MXJ,9.652170181,6.462259769,air,,45b7970b-87cc-478b-b6cb-e0b1ef052844
Port Harcourt International Airport,Port Hartcourt,Nigeria,PHC,5.015490055,6.949590206,air,,972b89f1-62d0-48fe-a5ad-abdc9bd3c28f
Sadiq Abubakar III International Airport,Sokoto,Nigeria,SKO,12.91629982,5.207190037,air,,1a67f6cf-b38a-4c45-9830-ce6000de499a
Yola Airport,Yola,Nigeria,YOL,9.25755024,12.43039989,air,,792ffa3a-03d0-43c7-87f8-e74e95b57046
Zaria Airport,Zaria,Nigeria,ZAR,11.1302,7.68581,air,,ca5d5043-c6c3-4bc5-aa75-e0281a9be93c
Maradi Airport,Maradi,Niger,MFQ,13.50249958,7.126749992,air,,19807714-bed9-48a3-a2bc-480f4550bdb7
Diori Hamani International Airport,Niamey,Niger,NIM,13.4815,2.18361,air,,a1bf7e87-54b3-460f-bf69-a6c17fd88ce6
Tahoua Airport,Tahoua,Niger,THZ,14.8757,5.265359879,air,,f147b2ee-cbdc-49de-b829-7290b70b9087
Mano Dayak International Airport,Agadez,Niger,AJY,16.9659996,8.000109673,air,,a4514ee7-59fd-4998-a93b-9bffb2019fce
Dirkou Airport,Dirkou,Niger,,18.96870041,12.86870003,air,,4c693021-269d-462c-af84-9518179af6d9
Diffa Airport,Diffa,Niger,,13.37290001,12.6267004,air,,b386d69c-a9a7-4d17-a01c-21f8c7e36a0f
Zinder Airport,Zinder,Niger,ZND,13.77900028,8.98375988,air,,6e149517-8fcf-4c4d-a8b6-ae2607c88e63
Monastir Habib Bourguiba International Airport,Monastir,Tunisia,MIR,35.7580986,10.75469971,air,,7c8ba221-8e13-4962-89ef-0b0273293a8d
Tunis Carthage International Airport,Tunis,Tunisia,TUN,36.85100174,10.22719955,air,,6bee943c-fed8-4a96-834a-2abbf42b148f
Sidi Ahmed Air Base,Bizerte,Tunisia,,37.245398,9.79145,air,,23fb34ee-3957-4055-9394-630cc195361d
Remada Air Base,Remada,Tunisia,,32.30619812,10.38210011,air,,d981012f-8d39-4f45-b20b-a82fa2e25cbc
Gafsa Ksar International Airport,Gafsa,Tunisia,GAF,34.42200089,8.822500229,air,,93fe6c1d-1201-478b-94e8-27e5e096bef5
Gabès Matmata International Airport,Gabes,Tunisia,GAE,33.87689972,10.10330009,air,,853fb35b-bce1-41bc-9c5c-292799a4c227
Borj El Amri Airport,Bordj El Amri,Tunisia,,36.72129822,9.943149567,air,,352ebff3-a0c5-4936-ba9c-a4fa7e04ccaa
Djerba Zarzis International Airport,Djerba,Tunisia,DJE,33.875,10.7755003,air,,d5250b77-9347-46f3-b084-6e6f69370ec1
El Borma Airport,El Borma,Tunisia,EBM,31.70429993,9.254619598,air,,88b107dc-cef8-45dc-b4cd-d2d40e712dc6
Sfax Thyna International Airport,Sfax,Tunisia,SFA,34.7179985,10.69099998,air,,e58efca5-b151-41c2-9287-6471fefde7c5
Tozeur Nefta International Airport,Tozeur,Tunisia,TOE,33.93970108,8.110560417,air,,7526817e-6495-4f6b-9faa-b0969815cbea
Niamtougou International Airport,Niatougou,Togo,LRL,9.76733017,1.091249943,air,,a1445cc7-b86f-44e6-ae40-ee6dc8c880d4
Lomé-Tokoin Airport,Lome,Togo,LFW,6.165609837,1.254510045,air,,d19b4bea-aee3-496a-81a9-70c568e5b980
Antwerp International Airport (Deurne),Antwerp,Belgium,ANR,51.18939972,4.460279942,air,,a8ab788b-034c-4dd5-a98d-e4b56b1d1eba
Beauvechain Air Base,Beauvechain,Belgium,,50.75859833,4.768330097,air,,95e3fbc9-407d-449d-9b7b-763c78c94931
Kleine Brogel Air Base,Kleine Brogel,Belgium,,51.168301,5.47,air,,bd5da78a-39b0-473b-9d87-54c390e4feb5
Brussels Airport,Brussels,Belgium,BRU,50.90140152,4.48443985,air,,ee080b0c-f27f-436f-a34c-00405e564ebc
Jehonville Air Base,Bertrix,Belgium,,49.89170074,5.223889828,air,,6e5398ec-5a78-44b6-a61a-a624a232ab7d
Brussels South Charleroi Airport,Charleroi,Belgium,CRL,50.459202,4.45382,air,,6bdacf3c-3c17-44ee-943f-922d680f6a09
Chièvres Air Base,Chievres,Belgium,,50.57580185,3.83100009,air,,c0f1d790-3c28-45b6-b337-c53b73c8f99e
Koksijde Air Base,Koksijde,Belgium,,51.09030151,2.652780056,air,,9691c1c5-14e6-464a-a7f5-8dfda529dc6f
Florennes Air Base,Florennes,Belgium,,50.24330139,4.645830154,air,,97b8b82d-22e0-4168-8f90-0f5135d3c310
Wevelgem Airport,Kortrijk-vevelgem,Belgium,KJK,50.81719971,3.20472002,air,,b026a9f0-e699-4e83-b326-9a24a96366d6
Liège Airport,Liege,Belgium,LGG,50.63740158,5.443220139,air,,4c60550c-e150-4c51-9dcb-4cd5a8330051
Ostend-Bruges International Airport,Ostend,Belgium,OST,51.19889832,2.862220049,air,,443e30b0-492e-49e4-b5e5-01eeeca7f648
Zutendaal Air Base,Zutendaal,Belgium,,50.94749832,5.590559959,air,,14a5cce1-8d37-4dcb-8c20-f703e9eb9c0e
Brustem Airfield Sint Truiden,Sint-truiden,Belgium,,50.791901,5.20167,air,,0419dfd6-971d-4c7c-951f-5e4063b624dd
Saint Hubert Air Base,St.-hubert,Belgium,,50.03440094,5.440810204,air,,6bed4b0e-9f25-4f0a-863d-59e0e6ccb818
Ursel Air Base,Ursel,Belgium,,51.14419937,3.47555995,air,,5accd7ba-07be-4309-8d8f-5ccfe9e43409
Weelde Air Base,Weelde,Belgium,,51.39479828,4.960189819,air,,1bbe864e-6415-4a80-b3ba-f88ef59eca97
Zoersel (Oostmalle) Airfield,Zoersel,Belgium,OBL,51.264702,4.75333,air,,3fe41c53-2ce3-45af-b505-9a37331a8b1e
Flugplatz Bautzen,Bautzen,Germany,,51.193611,14.519722,air,,6ae1e066-5808-4df9-8615-6c8c9b2f86d3
Altenburg-Nobitz Airport,Altenburg,Germany,AOC,50.981945,12.506389,air,,37b9647a-0f24-4ba3-a377-78feae993b2b
Dessau Airfield,Dessau,Germany,,51.831694,12.190962,air,,18e41bf4-8c60-45c8-b6b4-825acd79c041
Eisenhüttenstadt Airfield,Eisenhuettenstadt,Germany,,52.195856,14.58753,air,,047587bb-0dbc-42e6-8179-5a0584b28cab
Großenhain Airport,Suhl,Germany,,51.30805588,13.5555563,air,,4b869412-5144-49f2-abbc-d188d72ad012
Merseburg Airport,Muehlhausen,Germany,,51.3630556,11.9408333,air,,c694fcfa-38b5-45fd-a5a5-b4d1ea5526f2
Halle-Oppin Airport,Halle,Germany,,51.552223,12.053889,air,,c9caaf65-cd72-4b9c-b844-d37a571a829b
Riesa-Göhlis Airport,Riesa,Germany,IES,51.29360962,13.35611057,air,,321154f9-9805-4afa-8f1f-c15cf566e82b
Rechlin-Lärz Airport,Rechlin-laerz,Germany,REB,53.30638886,12.75222206,air,,d10859ea-8cb6-466e-b156-62ca450c9139
Strausberg Airport,Strausberg,Germany,,52.58055496,13.91666698,air,,e79384f9-2c8a-4dbd-a2f5-3086caa6f306
Schönhagen Airport,Schoenhagen,Germany,QXH,52.203609,13.156389,air,,8df43c9f-3bc9-4f3d-b808-76364853a11b
Barth Airport,Barth,Germany,BBH,54.338253,12.710515,air,,e5a446a8-8487-4929-84c1-366c9b80f58b
Jena-Schöngleina Airfield,Jena,Germany,,50.915279,11.714444,air,,47ac1266-e12c-4660-a2dc-b4cd470f41b7
Kyritz Airport,Kyritz,Germany,,52.91888809,12.42527771,air,,78734eed-cc8e-4a03-b77f-4b7b8ab33cd5
"Magdeburg ""City"" Airport",Magdeburg,Germany,ZMG,52.073612,11.626389,air,,31dc9c13-0496-48bc-bc9e-ce274140c5da
Rothenburg/Görlitz Airport,Rothenburg/ol,Germany,,51.36333466,14.94999981,air,,f3eef114-0104-4162-a2c6-84087772b2ec
Anklam Airfield,Anklam,Germany,,53.832779,13.668611,air,,c62dd70b-2072-47d7-b6b6-91f10045db52
Cottbus-Drewitz Airport,Cottbus,Germany,CBU,51.889442,14.531944,air,,33361968-c2cd-4fad-94da-3c1e31d14c3b
Kamenz Airport,Kamenz,Germany,,51.29694366,14.12749958,air,,d549b1ce-e6a9-4ff2-9899-1196838af911
Berlin-Schönefeld Airport,Berlin,Germany,SXF,52.380001,13.5225,air,,c507d861-0ecf-49ac-bb0d-6a868137b505
Dresden Airport,Dresden,Germany,DRS,51.13280106,13.76720047,air,,8b5fa678-b80b-4616-97d8-ae2c6f346c07
Erfurt Airport,Erfurt,Germany,ERF,50.97980118,10.95810032,air,,774bc98e-bfca-4916-8e0c-f55c5874441e
Frankfurt am Main Airport,Frankfurt,Germany,FRA,50.033333,8.570556,air,,7b847f27-9985-4309-a89b-8951d81a328a
Münster Osnabrück Airport,Munster,Germany,FMO,52.13460159,7.684830189,air,,c68b901f-32e3-4a4c-b364-d2e029f77528
Hamburg Airport,Hamburg,Germany,HAM,53.63040161,9.988229752,air,,d30df34e-1a3d-4517-b521-fc822f85bccb
Berlin-Tempelhof International Airport,Berlin,Germany,THF,52.47299957,13.40390015,air,,24a0bb66-2b78-4d2c-8bbe-32003a5aa331
Cologne Bonn Airport,Cologne,Germany,CGN,50.86589813,7.142739773,air,,ce77ed53-7f05-43bb-acf8-85d535c1e12f
Düsseldorf Airport,Duesseldorf,Germany,DUS,51.289501,6.76678,air,,525e789b-7430-43c5-b5e7-59a3cf8924a9
Munich Airport,Munich,Germany,MUC,48.353802,11.7861,air,,e1f303ed-5113-4384-a8ff-53c500ce2574
Nuremberg Airport,Nuernberg,Germany,NUE,49.498699,11.078056,air,,e4d23616-1ee4-41d2-8b50-40ba29a7e274
Leipzig/Halle Airport,Leipzig,Germany,LEJ,51.423889,12.236389,air,,8123cb30-29c3-4046-bbc7-410cf6c06411
Saarbrücken Airport,Saarbruecken,Germany,SCN,49.21459961,7.109509945,air,,568df10a-31fb-443c-bbe6-6f399fb7a2d9
Stuttgart Airport,Stuttgart,Germany,STR,48.68989944,9.221960068,air,,864fb083-5538-43e6-98a8-e335c7f03e8a
Berlin-Tegel Airport,Berlin,Germany,TXL,52.5597,13.2877,air,,4b645705-78fa-4060-9cda-b04fb00cad8a
Hannover Airport,Hannover,Germany,HAJ,52.46110153,9.685079575,air,,845bf7a8-306e-4786-a366-7ee94fb8c76c
Bremen Airport,Bremen,Germany,BRE,53.04750061,8.786669731,air,,e4da236a-7d7b-4b1d-b9ab-44329f180b12
Frankfurt-Egelsbach Airport,Egelsbach,Germany,QEF,49.959999,8.645833,air,,1d5ad849-1650-43fe-aff2-d8a0b95ef0ae
Frankfurt-Hahn Airport,Hahn,Germany,HHN,49.9487,7.26389,air,,ef4b4627-c619-49d3-9bd2-9dec2cf1eb11
Mannheim-City Airport,Mannheim,Germany,MHG,49.473057,8.514167,air,,caafae43-f5f1-4424-ac9f-b57ceb14d101
Allendorf/Eder Airport,Allendorf,Germany,,51.03499985,8.680832863,air,,e1875218-6bbc-4b1c-97bd-bbd9513a4529
Worms Airport,Worms,Germany,,49.606945,8.368333,air,,ac986299-cf45-4af5-80f3-c93e9e094d8b
Mainz-Finthen Airport,Mainz,Germany,,49.967499,8.147222,air,,d8474034-1895-4b50-b7f3-7c5cb042b312
Eisenach-Kindel Airport,Eisenach,Germany,EIB,50.991604,10.47973,air,,2f3b6019-df9e-4447-80d7-6399ecfeb2f5
Siegerland Airport,Siegerland,Germany,SGE,50.70769882,8.082969666,air,,15230ee8-aaca-4533-95d9-338d35940401
Hamburg-Finkenwerder Airport,Hamburg,Germany,XFW,53.53527832,9.83555603,air,,81d00655-2f2b-41d6-9717-1d2d918bc0e9
Kiel-Holtenau Airport,Kiel,Germany,KEL,54.37944412,10.14527798,air,,c38df881-ffd7-46dc-bb33-31f5a7a73fc1
Lübeck Blankensee Airport,Luebeck,Germany,LBC,53.80540085,10.71920013,air,,87fd7837-dd77-4933-89fd-6bc1c017e04d
Flugplatz Dahlemer Binz,Dahlemer Binz,Germany,,50.40555573,6.528889179,air,,ea8dbe8b-4f5d-4476-9d43-4d11c2ca1349
Meinerzhagen Airport,Meinerzhagen,Germany,,51.09999847,7.599999905,air,,2d65a4ac-c377-44ef-ae70-5ec8c6be8306
Arnsberg-Menden Airport,Arnsberg,Germany,,51.48389053,7.898333073,air,,5a896c8e-0b56-4b10-b531-e8f99f7ba3e7
Essen Mulheim Airport,Essen,Germany,ESS,51.40230179,6.937329769,air,,d358288b-074d-4331-b1ca-e7822fe428eb
Bielefeld Airport,Bielefeld,Germany,BFE,51.964722,8.544444,air,,a0a9f926-8eba-48b3-948c-4ff68cf173c6
Mönchengladbach Airport,Moenchengladbach,Germany,MGL,51.230278,6.504444,air,,dc33ded8-3215-4bcc-b0f4-5b823c26f326
Paderborn Lippstadt Airport,Paderborn,Germany,PAD,51.61410141,8.616319656,air,,abdcc26c-162f-4e81-b78e-77e05174adb0
Stadtlohn-Vreden Airport,Stadtlohn,Germany,,51.99583435,6.840556145,air,,57a2c810-6e3d-42c9-ad6b-cfdc94d29cfa
Dortmund Airport,Dortmund,Germany,DTM,51.5182991,7.612239838,air,,51d6d4a0-b798-4efa-9bdd-dca8026fba38
Augsburg Airport,Augsburg,Germany,AGB,48.425278,10.931667,air,,7c4ed962-fc91-49e6-bdea-c1315ee4b2b7
Biberach a.d. Riß Airfield,Biberach,Germany,,48.111111,9.762778,air,,872366c1-15c4-449b-a39f-98c5644ff689
Eggenfelden Airport,Eggenfelden,Germany,,48.39611053,12.72361088,air,,9f45aeab-771f-417d-9553-83b9ec3c5f33
Mindelheim-Mattsies Airfield,Mindelheim,Germany,,48.106945,10.525,air,,02562440-cd93-499c-b72c-1f62b4fbec5e
Oberpfaffenhofen Airport,Oberpfaffenhofen,Germany,OBF,48.081402,11.2831,air,,f53594a9-1726-4761-a698-352584b719e8
Straubing Airport,Straubing,Germany,RBM,48.90083313,12.51666737,air,,028a56a6-4c6b-4061-bf48-2a5a3f700e52
Vilshofen Airport,Vilshofen,Germany,,48.63499832,13.19555569,air,,06878756-c1f2-4f1e-b708-64d5b2f2b460
Leutkirch-Unterzeil Airport,Leutkirch,Germany,,47.85889053,10.01416683,air,,5e9c4dd2-145e-4183-95a9-ec02f80fab70
Friedrichshafen Airport,Friedrichshafen,Germany,FDH,47.67129898,9.511489868,air,,368cfee2-e219-484d-9100-a3c612b4f56d
Schwerin Parchim Airport,Parchim,Germany,SZW,53.426998,11.7834,air,,9e8cf249-b661-4b91-acd2-2f5dfc2d5909
Stendal-Borstel Airport,Stendal,Germany,,52.62888718,11.81861115,air,,a9929da0-2e34-44a7-a206-cc4d9986b534
Aalen-Heidenheim/Elchingen Airport,Aalen-heidenheim,Germany,,48.77777863,10.26472187,air,,832521e4-86b5-4a9b-8213-b034d68b4f8e
Bayreuth Airport,Bayreuth,Germany,BYU,49.985001,11.64,air,,57a06887-a025-4051-a88f-78e505ca1e93
Burg Feuerstein Airport,Burg Feuerstein,Germany,URD,49.79416656,11.13361073,air,,534de799-8fed-4208-b254-fbe5e8d70fd4
Hof-Plauen Airport,Hof,Germany,HOQ,50.28861237,11.85638905,air,,aadf08b3-2805-4c4c-9333-cd0cce6f4989
Haßfurt-Schweinfurt Airport,Hassfurt,Germany,,50.01805496,10.52944374,air,,2e621857-c20d-4e9a-8f65-e40d526ad300
Koblenz-Winningen Airfield,Koblenz,Germany,,50.325558,7.528611,air,,d086f696-251a-4895-bc65-df97f18b498c
Trier-Föhren Airport,Trier,Germany,,49.863888,6.7875,air,,3c226ef1-e84a-490e-b359-2062b67f3353
Speyer Airfield,Speyer,Germany,,49.304722,8.451389,air,,9e3f54a9-c1e4-459a-8898-e5721fab7e3e
Zweibrücken Airport,Zweibruecken,Germany,ZQW,49.2094,7.40056,air,,b66c86d7-eb49-4fd3-8a07-52cf4132f5ec
Donaueschingen-Villingen Airport,Donaueschingen,Germany,ZQL,47.97333145,8.522221565,air,,1bb33ab9-193f-48ee-bd94-7628ba9ebfa2
Freiburg i. Br. Airport,Freiburg,Germany,,48.02277756,7.832499981,air,,d7b4d405-9ff1-4bef-a629-e10d798843f4
Mengen-Hohentengen Airport,Mengen,Germany,,48.05389023,9.372777939,air,,847e7e17-4265-4b7d-ab9a-ef3cbbcc6386
Adolf Würth Airport,Schwaebisch Hall,Germany,,49.11833191,9.783888817,air,,fa4032fd-c7ef-4caa-b04d-dbe9e1543175
Finsterwalde/Schacksdorf Airport,Soest,Germany,,51.607498,13.743611,air,,343fbe0c-52bf-4481-b0e7-c02267694d47
Braunschweig-Wolfsburg Airport,Braunschweig,Germany,BWE,52.319199,10.5561,air,,72320484-7bb0-4aec-a7cd-c05785f7517c
Kassel-Calden Airport,Kassel,Germany,KSF,51.417273,9.384967,air,,8ede270d-8dde-4158-b890-a580552a9be4
Hildesheim Airport,Hildesheim,Germany,,52.18138885,9.946389198,air,,789a9810-6d42-4361-9f23-9587cf57b142
Bremerhaven Airport,Bremerhaven,Germany,BRV,53.506943,8.572778,air,,83f67e88-8f9b-4b7b-86f2-0f60639a1831
Emden Airport,Emden,Germany,EME,53.391109,7.2275,air,,328cb73d-815d-4c06-9eaf-fc369722a517
Leer-Papenburg Airport,Leer,Germany,,53.27194214,7.44166708,air,,f12bf44d-07c0-4017-a733-b0ca5f505fbb
Wilhelmshaven-Mariensiel Airport,Wilhelmshaven,Germany,WVN,53.50222015,8.052222252,air,,4a135d4f-7855-4f97-a0d7-4ee2c62b682b
Borkum Airport,Borkum,Germany,BMK,53.59639,6.709167,air,,6fae68b8-c631-4339-b7b6-2e8ef35b7d3a
Norderney Airport,Norderney,Germany,NRD,53.70694351,7.230000019,air,,3388f278-a592-45c2-9070-253e2541e8d8
Flensburg-Schäferhaus Airport,Flensburg,Germany,FLF,54.7733345,9.378889084,air,,66ecd361-8fed-4ef3-8a99-fe819c16a37c
Rendsburg-Schachtholm Airport,Rendsburg,Germany,,54.22000122,9.599444389,air,,c2d1c897-7f56-425b-ba0e-0ae68351e5f8
Westerland Sylt Airport,Westerland,Germany,GWT,54.91320038,8.340470314,air,,14b3aafd-cf99-4101-868d-9cfd24df302a
Ämari Air Base,Armari Air Force Base,Estonia,,59.26029968,24.20849991,air,,5d4efd61-aefd-43a9-b0d0-7aedfe262e8d
Kärdla Airport,Kardla,Estonia,KDL,58.99079895,22.83069992,air,,0f7ff789-1be6-4b9f-acbf-d8aab4365e83
Kuressaare Airport,Kuressaare,Estonia,URE,58.22990036,22.5095005,air,,6fc2ae25-4430-4387-a0ed-1c1cccc38e1f
Pärnu Airport,Parnu,Estonia,EPU,58.41899872,24.4727993,air,,c728596d-0bb2-414d-a985-07ed06d26dea
Lennart Meri Tallinn Airport,Tallinn-ulemiste International,Estonia,TLL,59.41329956,24.83279991,air,,2ee5f571-94e4-40a8-b34f-a624fa00cd0b
Tartu Airport,Tartu,Estonia,TAY,58.30749893,26.69039917,air,,0d101a76-8c7c-4bb0-9fe1-b75dbddc442c
Enontekio Airport,Enontekio,Finland,ENF,68.36260223,23.42429924,air,,ad70b2cd-803b-4440-a7c4-5862dc145c4b
Eura Airport,Eura,Finland,,61.11610031,22.20140076,air,,f0228717-2c46-4aae-b7cd-19c300330e2c
Halli Airport,Halli,Finland,KEV,61.856039,24.786686,air,,99b51988-586d-4669-818b-79db93f86767
Helsinki Malmi Airport,Helsinki,Finland,HEM,60.25460052,25.0428009,air,,3c1bcb2f-3a29-495a-a05c-9a75dc6862fb
Helsinki Vantaa Airport,Helsinki,Finland,HEL,60.31719971,24.9633007,air,,ad3ccda4-39b9-47bc-ac28-003d67be4fdb
Hameenkyro Airport,Hameenkyro,Finland,,61.68970108,23.07369995,air,,7fdb0c65-10c6-44c3-8390-b21c54f200bb
Hanko Airport,Hanko,Finland,,59.84889984,23.08359909,air,,70037952-c12e-44e1-ad94-d00f2100436b
Hyvinkää Airfield,Hyvinkaa,Finland,HYV,60.65439987,24.8810997,air,,6c25e26e-67c8-43c5-bf5a-6e25a124b9d0
Kiikala Airport,Kikala,Finland,,60.46250153,23.65250015,air,,3cfbfb7e-d335-4d7b-9b86-964acd68d0fc
Immola Airport,Immola,Finland,,61.24919891,28.90369987,air,,57331499-3bcc-4706-a545-ff9eb3e80df6
Kitee Airport,Kitee,Finland,KTQ,62.1661,30.073601,air,,c26d81a2-9a52-480e-89dd-26fde94b7e3c
Ivalo Airport,Ivalo,Finland,IVL,68.6072998,27.40530014,air,,52b5905d-47c9-4f1e-b75c-a8a7f1d0a694
Joensuu Airport,Joensuu,Finland,JOE,62.66289902,29.60750008,air,,94416f14-a17d-4b0d-8410-3f47d767c8d5
Jyvaskyla Airport,Jyvaskyla,Finland,JYV,62.3995018,25.67830086,air,,d1c1cd85-2615-42ae-8fc4-6aa890e5561a
Kauhava Airport,Kauhava,Finland,KAU,63.127102,23.051399,air,,d455296e-f8d1-49f6-a5cc-1460af0487a4
Kemi-Tornio Airport,Kemi,Finland,KEM,65.77870178,24.58209991,air,,730a2d13-60d9-4690-b407-e0e2ba181773
Kajaani Airport,Kajaani,Finland,KAJ,64.28549957,27.69239998,air,,e7036f87-ade7-405f-9050-81617215c5a0
Kauhajoki Airport,Kauhajoki,Finland,KHJ,62.46250153,22.39310074,air,,fc66ee1a-8a52-482c-8e78-b7804b8f2a56
Kokkola-Pietarsaari Airport,Kruunupyy,Finland,KOK,63.72119904,23.14310074,air,,4fc8af8f-7a73-4e07-a668-7ab32c3c56d4
Kemijarvi Airport,Kemijarvi,Finland,,66.712898,27.156799,air,,98eb5500-4b90-43ae-9c62-084a2d007952
Kuusamo Airport,Kuusamo,Finland,KAO,65.98760223,29.23940086,air,,e3dacce7-1893-4604-b55c-da9e8aeaad80
Kittilä Airport,Kittila,Finland,KTT,67.7009964,24.84679985,air,,f89db6e6-0556-4d4d-b77d-c53f3cbfa9d8
Kuopio Airport,Kuopio,Finland,KUO,63.00709915,27.79780006,air,,3a3baefa-d513-4761-b3d8-1546d20752a9
Lahti Vesivehmaa Airport,Vesivehmaa,Finland,QLF,61.144199,25.693501,air,,c966e9c5-f6ba-40c1-9e52-7f2a82e947c0
Lappeenranta Airport,Lappeenranta,Finland,LPP,61.044601,28.144743,air,,1406f85b-867f-40ad-908f-b3012cb93445
Mariehamn Airport,Mariehamn,Finland,MHQ,60.12220001,19.89819908,air,,b8bae109-5fb0-42b1-8f98-48598a26ae5a
Menkijarvi Airport,Menkijarvi,Finland,,62.94670105,23.51889992,air,,64f49daf-01cc-4819-b024-070dc8078e14
Mikkeli Airport,Mikkeli,Finland,MIK,61.6866,27.201799,air,,16c18d79-3f49-4231-ba25-ec8c9d9526f8
Nummela Airport,Nummela,Finland,,60.33390045,24.29640007,air,,c41c3705-4648-4f1f-9501-5ca047c6d1da
Oulu Airport,Oulu,Finland,OUL,64.93009949,25.35460091,air,,0e417380-04b9-4154-8983-771d270681e2
Piikajarvi Airport,Piikajarvi,Finland,,61.24560165,22.19339943,air,,eb95cb0f-e271-4bb9-b761-90839112d3af
Pori Airport,Pori,Finland,POR,61.46170044,21.79999924,air,,4028ae04-ded7-412f-91ba-33ca3f5534e7
Pudasjärvi Airport,Pudasjarvi,Finland,,65.40219879,26.94689941,air,,69c9be55-d13e-406a-8e20-475184269e3e
Pyhäsalmi Airport,Pyhasalmi,Finland,,63.73189926,25.92630005,air,,888fab88-86d6-494e-9e82-f1d81d3fc8df
Raahe Pattijoki Airport,Pattijoki,Finland,,64.68810272,24.69580078,air,,be6b339f-a190-4b65-a6d8-1d011c70f363
Rantasalmi Airport,Rantasalmi,Finland,,62.06549835,28.35650063,air,,aa162348-642d-46e5-b010-fd1534e08405
Rovaniemi Airport,Rovaniemi,Finland,RVN,66.56479645,25.83040047,air,,5f263552-9c1c-4c3a-9045-99d4b57769af
Rayskala Airport,Rayskala,Finland,,60.74470139,24.10779953,air,,f236a3bc-683f-4761-9de9-27eca5787919
Savonlinna Airport,Savonlinna,Finland,SVL,61.94309998,28.94510078,air,,382ab078-f355-4ddb-897f-991872d99c3e
Selanpaa Airport,Selanpaa,Finland,,61.06240082,26.7989006,air,,7e5a49f0-eba9-4432-a4d6-0f63390cf2cf
Sodankyla Airport,Sodankyla,Finland,SOT,67.39499664,26.61910057,air,,02672c9d-8de5-494d-ba85-a902645d7936
Tampere-Pirkkala Airport,Tampere,Finland,TMP,61.41410065,23.60440063,air,,dda2b246-0728-47f8-8294-53fa19bc3df5
Teisko Airport,Teisko,Finland,,61.7733,24.027,air,,4c513ddb-cb7f-4b10-9a08-2c90097c1cb9
Turku Airport,Turku,Finland,TKU,60.51409912,22.26280022,air,,301c1d6e-97f4-44d3-80a9-62e3922e4743
Utti Air Base,Utti,Finland,UTI,60.89640045,26.93840027,air,,1ec4202d-aec6-4013-befd-ab779b94cd83
Vaasa Airport,Vaasa,Finland,VAA,63.05070114,21.7621994,air,,87f4435c-42bf-4e67-87b1-8ca3aba3446f
Varkaus Airport,Varkaus,Finland,VRK,62.17110062,27.86860085,air,,2d5c7017-bf2c-47eb-9c17-f07a610f4c78
Ylivieska Airfield,Ylivieska-raudaskyla,Finland,YLI,64.0547222,24.7252778,air,,f05b0f25-aab6-41c0-825b-f3f5708d677f
Belfast International Airport,Belfast,United Kingdom,BFS,54.65750122,-6.215829849,air,,538017c1-acf5-46e6-a14f-194b6bebccfe
St Angelo Airport,Enniskillen,United Kingdom,ENK,54.39889908,-7.651669979,air,,68bbe1ff-d942-419c-a01e-3697482216db
George Best Belfast City Airport,Belfast,United Kingdom,BHD,54.61809921,-5.872499943,air,,48400612-a786-4792-9d0d-5a9df98c90c0
City of Derry Airport,Londonderry,United Kingdom,LDY,55.0428009,-7.161109924,air,,76bbbaf3-39a5-48d2-a17f-0dc8a272b35b
Birmingham International Airport,Birmingham,United Kingdom,BHX,52.45389938,-1.748029947,air,,3d3fe47e-a857-485f-a8dc-969772953786
Coventry Airport,Coventry,United Kingdom,CVT,52.36970139,-1.479719996,air,,9b1ec12d-72ab-4ce3-8125-6902c812ef7d
Leicester Airport,Leicester,United Kingdom,,52.60779953,-1.031939983,air,,da4468f8-f0e6-4089-be19-30a3d67cda83
Gloucestershire Airport,Golouchestershire,United Kingdom,GLO,51.89419937,-2.167220116,air,,a0e08b82-321e-4c99-8cd0-7f48f8190d68
Wolverhampton Halfpenny Green Airport,Halfpenny Green,United Kingdom,,52.51750183,-2.259439945,air,,25988651-f535-4c43-9126-2718390103d5
Cotswold Airport,Pailton,United Kingdom,GBA,51.668095,-2.05694,air,,47704e1c-31b5-4f0e-98d7-0f0c152e286f
Turweston Airport,Turweston,United Kingdom,,52.04079819,-1.095559955,air,,6b8885b2-bbad-428f-9f55-3eff4f6dcd4e
Wellesbourne Mountford Airport,Wellesbourne,United Kingdom,,52.19219971,-1.614439964,air,,afe00a0e-b3d6-49ed-b443-96d8226f4c2b
Manchester Airport,Manchester,United Kingdom,MAN,53.35369873,-2.274950027,air,,568daeff-40fc-4d11-8dd2-fbc27c1d22fa
Manchester Woodford Airport,Woodfort,United Kingdom,,53.3381,-2.14889,air,,10589f0a-1ab3-4199-b587-a0d617992fbc
Royal Marines Base Chivenor Airport,Chivenor,United Kingdom,,51.08720016,-4.15034008,air,,2eabd931-888f-46f4-b2ba-d40571f86bc2
Newquay Cornwall Airport,Newquai,United Kingdom,NQY,50.44060135,-4.995409966,air,,584681c7-0d85-4641-9e93-fe3ba2ac4986
RAF Lyneham,Lyneham,United Kingdom,LYE,51.5051,-1.99343,air,,a29e6f12-b285-4989-b223-b0dd105d5a7a
MoD Boscombe Down Airport,Boscombe Down,United Kingdom,,51.15219879,-1.747410059,air,,538bed50-4c8e-40ea-9b61-33d9fc9c8fd5
RNAS Culdrose,Culdrose,United Kingdom,,50.08610153,-5.255710125,air,,01f3febc-ee27-44d6-b32f-366291e5eafe
MoD St. Athan,St. Athan,United Kingdom,,51.4048,-3.43575,air,,7cd5d7b2-a2a7-483d-b3d5-5c0b5b45e0fc
RNAS Yeovilton,Yeovilton,United Kingdom,YEO,51.00939941,-2.638819933,air,,9b06485e-a95d-4d56-a811-e99714ac3189
Haverfordwest Airport,Haverfordwest,United Kingdom,HAW,51.83309937,-4.961110115,air,,a94e63e3-f263-4c61-a075-80268db6b04e
Cardiff International Airport,Cardiff,United Kingdom,CWL,51.39670181,-3.343329906,air,,934b4584-16b8-4c54-9f6d-fd61cac91dc6
Swansea Airport,Swansea,United Kingdom,SWS,51.6053009,-4.067830086,air,,3373bc93-f7b9-413e-b8a5-d1e594f15555
Bristol Airport,Bristol,United Kingdom,BRS,51.382702,-2.71909,air,,59926283-0c88-4ace-bf16-3320111861df
Liverpool John Lennon Airport,Liverpool,United Kingdom,LPL,53.33359909,-2.849720001,air,,fb8a8233-77f5-4dea-94b5-5f2968b3b64c
London Luton Airport,London,United Kingdom,LTN,51.87469864,-0.368333012,air,,a8883b72-4453-4b4b-9ed5-ce2b4cec5d63
Plymouth City Airport,Plymouth,United Kingdom,PLH,50.422798,-4.10583,air,,5960393b-92ea-4aa5-a6a6-56007298887d
Bournemouth Airport,Bournemouth,United Kingdom,BOH,50.77999878,-1.842499971,air,,5bfee063-ffea-4709-9ba3-a3a65cdb4211
Southampton Airport,Southampton,United Kingdom,SOU,50.95029831,-1.35679996,air,,2e248fcc-7689-4c6b-ab8c-248c8456558b
Lasham Airport,Lasham,United Kingdom,QLA,51.18719864,-1.033499956,air,,e190be0b-5d9f-46b6-986b-278fea449056
Alderney Airport,Alderney,Guernsey,ACI,49.706104,-2.21472,air,,a3402317-59d9-4ca8-8ec3-b24ca5789ba4
Guernsey Airport,Guernsey,Guernsey,GCI,49.43500137,-2.601969957,air,,114a3c60-aff5-4360-a39f-d8c13440bb4b
Jersey Airport,Jersey,Jersey,JER,49.207901,-2.195509911,air,,82062e83-cd87-4d7d-b846-217b93fff809
Shoreham Airport,Shoreham By Sea,United Kingdom,ESH,50.835602,-0.297222,air,,f386c045-c982-4449-bf7f-6da8d158c007
London Biggin Hill Airport,Biggin Hill,United Kingdom,BQH,51.3307991,0.032499999,air,,6f44edb3-57e8-4c1b-8bc2-2b8331b13548
London Gatwick Airport,London,United Kingdom,LGW,51.148102,-0.190278,air,,370345dc-42ea-457d-9cd9-28363cc37c84
London City Airport,London,United Kingdom,LCY,51.505299,0.055278,air,,4276b7b2-5a2b-40ab-ad44-a15ae6725fc8
Farnborough Airport,Farnborough,United Kingdom,FAB,51.2757988,-0.776332974,air,,8031bd1b-0fda-4a59-8cd6-77869462e2e4
Chalgrove Airport,Chalsgrove,United Kingdom,,51.67610168,-1.080829978,air,,ec1b4f8a-82a9-4331-b561-3d8c4c78e041
Blackbushe Airport,Blackbushe,United Kingdom,BBS,51.32389832,-0.847500026,air,,ee2c8994-5f18-4669-aad7-2188ab5c67e3
London Heathrow Airport,London,United Kingdom,LHR,51.4706,-0.461941,air,,37fbe992-03cf-4407-92e1-dfe0e552f4ed
Southend Airport,Southend,United Kingdom,SEN,51.57139969,0.695555985,air,,18df7336-723f-40e9-bd28-cd68bcd0f85a
Lydd Airport,Lydd,United Kingdom,LYX,50.95610046,0.939167023,air,,ea1eefa2-774c-4438-a815-7c40c26842f4
Kent International Airport,Manston,United Kingdom,MSE,51.342201,1.34611,air,,a0cfb598-f53e-46ee-8f07-7066e7c392fb
Brough Airport,Brough,United Kingdom,,53.7197,-0.566333,air,,c816209d-cb59-42db-b179-72b0ca5c6fde
Carlisle Airport,Carlisle,United Kingdom,CAX,54.9375,-2.809170008,air,,6396055e-baa5-4e6f-96db-2b20d82edf30
Retford Gamston Airport,Repton,United Kingdom,,53.2806015,-0.951389015,air,,67827739-c5f6-4d66-88e5-5d21814adf20
Blackpool International Airport,Blackpool,United Kingdom,BLK,53.77170181,-3.028609991,air,,84652761-a99f-4aff-8ead-ee9aa9b4ee59
Humberside Airport,Humberside,United Kingdom,HUY,53.57440186,-0.350832999,air,,a433b3a2-bdd5-47da-9356-13ddb7ba7f42
Barrow Walney Island Airport,Barrow Island,United Kingdom,BWF,54.1286111,-3.2675,air,,637f6dbb-2025-4b55-8cb1-80119d3bb48a
Leeds Bradford Airport,Leeds,United Kingdom,LBA,53.86589813,-1.660570025,air,,d0e18652-8355-46a6-9f55-21710674f4ad
Warton Airport,Warton,United Kingdom,WRT,53.745098,-2.88306,air,,8aeee5f9-8440-4823-a15e-64735954eb81
Hawarden Airport,Hawarden,United Kingdom,CEG,53.17810059,-2.977780104,air,,e5bf1dbe-f12b-406e-9e32-b7fe84ff7e7b
Isle of Man Airport,Isle Of Man,Isle of Man,IOM,54.08330154,-4.623889923,air,,b346ad7a-009a-4636-845b-0e9ba702e459
Newcastle Airport,Newcastle,United Kingdom,NCL,55.03749847,-1.691669941,air,,5edc9959-a911-4f86-a684-216b8968c9ca
Durham Tees Valley Airport,Teesside,United Kingdom,MME,54.50920105,-1.429409981,air,,25f3a077-3d81-4d59-82d5-f9c79c9ea408
East Midlands Airport,East Midlands,United Kingdom,EMA,52.83110046,-1.328060031,air,,3ddd3917-7088-434a-b8be-d06b7718d96d
Llanbedr Airport,Llanbedr,United Kingdom,,52.81169891,-4.123579979,air,,39004913-eb46-4a0f-9955-c087b9488c57
RAF Ternhill,Ternhill,United Kingdom,,52.87120056,-2.533560038,air,,c9c591e4-9b36-44cf-ac0d-4468d7ec8803
RAF Shawbury,Shawbury,United Kingdom,,52.7981987,-2.668040037,air,,43cd3da1-9a77-430a-b02a-352f4fefc336
RAF Woodvale,Woodvale,United Kingdom,,53.5816,-3.05552,air,,c2e35c4f-948b-46e5-95e9-66d8d6049394
Kirkwall Airport,Kirkwall,United Kingdom,KOI,58.95780182,-2.904999971,air,,1b3171c8-6e70-40c4-8b14-9a25196ae1c4
Sumburgh Airport,Sumburgh,United Kingdom,LSI,59.87889862,-1.295560002,air,,73869e28-a496-439b-99ad-5f41c219ff9b
Wick Airport,Wick,United Kingdom,WIC,58.45890045,-3.093060017,air,,6904c96a-fc34-4b8e-8c3e-aeb63323dddc
Aberdeen Dyce Airport,Aberdeen,United Kingdom,ABZ,57.20190048,-2.197779894,air,,5e9c302f-9084-4f72-ba20-d6c27cfae8e2
Inverness Airport,Inverness,United Kingdom,INV,57.54249954,-4.047500134,air,,0f65dc52-25cf-4ff2-a1f1-6d70d93d41a9
Glasgow International Airport,Glasgow,United Kingdom,GLA,55.87189865,-4.433060169,air,,758d8c11-cce7-4976-80fb-5b9f44b5995a
Edinburgh Airport,Edinburgh,United Kingdom,EDI,55.95000076,-3.372499943,air,,025a69f4-a2f9-4c81-8f73-1489b24a28e0
Islay Airport,Islay,United Kingdom,ILY,55.68190002,-6.256669998,air,,2b4014a0-b002-4e2d-a93b-583b1d3fc4b1
Glasgow Prestwick Airport,Prestwick,United Kingdom,PIK,55.50939941,-4.586669922,air,,eda5b4a1-e915-4e9b-89d9-56fee7528b3b
Benbecula Airport,Benbecula,United Kingdom,BEB,57.48109818,-7.362780094,air,,6cc66181-7254-439a-9b6d-98e4ba43b49e
Scatsta Airport,Scatsta,United Kingdom,SCS,60.43280029,-1.296110034,air,,b3672a68-88cf-42ed-96a9-679c084709bc
Dundee Airport,Dundee,United Kingdom,DND,56.45249939,-3.02583003,air,,cf5207a4-d788-47f3-8a65-d0df9b2e4d8f
Stornoway Airport,Stornoway,United Kingdom,SYY,58.21559906,-6.331110001,air,,0dae772b-e7f2-4a30-bc65-3dd8c40b64fb
Tiree Airport,Tiree,United Kingdom,TRE,56.49919891,-6.869170189,air,,cdd09f96-ca7f-432f-bb84-74fa1e9163c9
RAF Leuchars,Leuchars,United Kingdom,ADX,56.3728981,-2.868439913,air,,fb79ad75-5223-4fc6-90f0-86274502ec0d
RAF Lossiemouth,Lossiemouth,United Kingdom,LMO,57.7052002,-3.339169979,air,,31f4a214-af84-46d9-9fb2-0bdf1c26449d
Cambridge Airport,Cambridge,United Kingdom,CBG,52.205002,0.175,air,,f58bf3cd-49a9-42db-b69c-d5a47d304c95
Peterborough Business Airport,Peterborough,United Kingdom,,52.4681015,-0.251111001,air,,495218c7-84c3-42f4-bcb9-4deecf3d6ad8
Norwich International Airport,Norwich,United Kingdom,NWI,52.67580032,1.282780051,air,,9c2049e5-f8a8-4d54-bda8-aaee0b5308c0
London Stansted Airport,London,United Kingdom,STN,51.88499832,0.234999999,air,,7838402b-f131-4251-9d6f-8bd29b68e583
North Weald Airport,North Weald,United Kingdom,,51.72169876,0.154166996,air,,e434e588-139b-46e2-9007-e7f8ed3133dc
Sheffield City Heliport,Fowlmere,United Kingdom,,53.394299,-1.38849,air,,4bee00ea-dff4-454a-9845-d74806317579
Cranfield Airport,Cranfield,United Kingdom,,52.07220078,-0.616666973,air,,33d19768-1a82-4edc-85d3-739a88da7e4e
Exeter International Airport,Exeter,United Kingdom,EXT,50.7344017,-3.413889885,air,,3c09164b-328b-4ce3-996f-f6e9821985bc
Bristol Filton Airport,Bristol,United Kingdom,FZO,51.51940155,-2.590830088,air,,64d03320-8e51-4faf-a5e6-6b187311769b
Oxford (Kidlington) Airport,Oxford,United Kingdom,OXF,51.8368988,-1.320000052,air,,6bbeff68-6e92-4bcc-bedd-64c8f6e333ba
RAF Benson,Benson,United Kingdom,BEX,51.61640167,-1.095829964,air,,7e367829-89ae-4018-8636-fe6c2e59778b
RAF Lakenheath,Lakenheath,United Kingdom,LKZ,52.40930176,0.56099999,air,,cb7b50b6-00fe-40f4-809c-ab0bbca56364
RAF Mildenhall,Mildenhall,United Kingdom,MHZ,52.36190033,0.486405998,air,,f012b7bc-e108-4424-a75d-c5f5d3b8c04e
RAF Wattisham,Wattisham,United Kingdom,,52.12730026,0.956264019,air,,2a558eb6-2017-4509-bc3d-86dbd09e9d12
RAF Wyton,Wyton,United Kingdom,QUY,52.35720062,-0.107832998,air,,7cdc559f-ac07-42cf-9194-0a13b3821ca4
RAF Fairford,Fairford,United Kingdom,FFD,51.68220139,-1.790030003,air,,1c1ec458-e0b4-4a6d-b827-b1c287fa7605
RAF Brize Norton,Brize Norton,United Kingdom,BZZ,51.75,-1.58362,air,,42ce92af-6bdb-4b30-b1d0-d2c2dfefb343
RAF Odiham,Odiham,United Kingdom,ODH,51.23410034,-0.942825019,air,,00614a3a-7e8b-484d-8a16-151360334a92
DCAE Cosford Air Base,Cosford,United Kingdom,,52.639999,-2.30558,air,,3e596a20-9c84-46a0-94ce-3112373f186e
RAF Northolt,Northolt,United Kingdom,NHT,51.5530014,-0.418166995,air,,d86e2ab0-96a4-4d35-acd6-68e711b50f48
RAF Coningsby,Coningsby,United Kingdom,QCY,53.0929985,-0.166014001,air,,a921b241-8f15-4004-befa-2d2b916205fa
RAF Dishforth,Dishforth,United Kingdom,,54.1371994,-1.420250058,air,,2eb15554-8956-4b51-9cac-ee9d654e8e95
Leeming Airport,Leeming,United Kingdom,,54.2924,-1.5354,air,,515e35ec-d832-4568-a914-2cba0f1fd6da
Leeds East Airport,Church Fenton,United Kingdom,,53.834301,-1.1955,air,,7208cef0-3ecd-445e-9b7d-15d1d2b26025
RAF Honington,Honington,United Kingdom,BEQ,52.34260178,0.772939026,air,,853f078e-73ba-48b3-8037-d776b33033bb
RAF Cottesmore,Cottesmore,United Kingdom,,52.735699,-0.648769,air,,145d4d08-2bc1-4c58-81d9-8907398dbd58
RAF Scampton,Scampton,United Kingdom,SQZ,53.30780029,-0.550832987,air,,28315334-22b4-4733-8097-85fb6f424cb7
RAF Wittering,Wittering,United Kingdom,,52.612598,-0.476453,air,,e40f1d58-5243-43a0-b5b1-76d9dc8d01a6
RAF Linton-On-Ouse,Linton-on-ouse,United Kingdom,HRT,54.0489006,-1.252750039,air,,ad09cd99-4d4f-439b-9043-5db096f34f5e
RAF Waddington,Waddington,United Kingdom,WTN,53.16619873,-0.523810983,air,,721522dd-a0f5-4960-8834-f664b1088503
RAF Topcliffe,Topcliffe,United Kingdom,,54.20550156,-1.382089973,air,,37c0d0f5-7409-4b14-943e-b7b23deee216
RAF Cranwell,Cranwell,United Kingdom,,53.03030014,-0.483242005,air,,e77654b6-90e3-497c-92f3-96a9da3e1ac6
RAF Barkston Heath,Barkston Heath,United Kingdom,,52.96220016,-0.561625004,air,,4d091db8-4fb6-4be4-95eb-5520a8cb3f8f
RAF Marham,Marham,United Kingdom,KNF,52.648395,0.550692,air,,5d5f2fc4-9adc-4228-8f98-38ee99d6e671
Mount Pleasant Airport,Mount Pleasant,Falkland Islands,MPN,-51.82279968,-58.44720078,air,,6099744e-e9da-443d-b631-c2ec7eeee8c1
Amsterdam Airport Schiphol,Amsterdam,Netherlands,AMS,52.308601,4.76389,air,,1b3f0eb3-50e5-4b8c-adf7-acbfafeefcc5
Budel Airfield Kempen,Weert,Netherlands,,51.255299,5.60139,air,,6188af86-8c8a-478e-8776-9f5a498d1bb3
Maastricht Aachen Airport,Maastricht,Netherlands,MST,50.911701,5.77014,air,,fe2c38ab-8586-49f5-b70c-d5dc19d3aaa5
Deelen Air Base,Deelen,Netherlands,,52.0606,5.87306,air,,359d83af-01f5-4a74-964d-1cc14382115f
Drachten Airport,Drachten,Netherlands,,53.11920166,6.129720211,air,,ff619c51-9f43-4b87-9230-c92b73224874
Eindhoven Airport,Eindhoven,Netherlands,EIN,51.45009995,5.374529839,air,,4db77962-71bc-46a6-bfb9-61b3a429bfe2
Eelde Airport,Groningen,Netherlands,GRQ,53.11970139,6.579440117,air,,67e241cf-1b54-47f8-bbaa-03ac2c82cb4e
Gilze Rijen Air Base,Gilze-rijen,Netherlands,GLZ,51.56740189,4.931829929,air,,d5343686-04d6-4b5d-bd68-ef1cdb9480af
De Kooy Airport,De Kooy,Netherlands,DHR,52.92340088,4.780620098,air,,de815b3f-ef4a-405b-9ecf-41cfac6e720b
Lelystad Airport,Lelystad,Netherlands,LEY,52.4603,5.52722,air,,d1c29f04-2bb0-40f0-97d5-18331ebc1fc7
Leeuwarden Air Base,Leeuwarden,Netherlands,LWR,53.22859955,5.760560036,air,,6f50f0fe-7731-4a49-ac49-b4a1d92c8c4e
Rotterdam The Hague Airport,Rotterdam,Netherlands,RTM,51.956902,4.43722,air,,831d61e5-8b55-4470-bc6c-182ffd81114b
Soesterberg Air Base,Soesterberg,Netherlands,UTC,52.12730026,5.276189804,air,,3e75e48a-019d-457d-b5f9-16db0bd3c699
Twente Airport,Enschede,Netherlands,ENS,52.275833,6.889167,air,,825ec91b-5a36-4ef2-8afa-ad41a59805b2
Valkenburg Naval Air Base,Valkenburg,Netherlands,LID,52.16609955,4.41794014,air,,7ffcc966-f8e1-422e-ac53-09a5136712ac
Woensdrecht Air Base,Woensdrecht,Netherlands,WOE,51.4491,4.34203,air,,41200759-b574-4326-ac4e-dd6fad1cd2fb
Cork Airport,Cork,Ireland,ORK,51.84130096,-8.491109848,air,,f7268fc0-2f86-4cf9-a0d1-618393aa1142
Galway Airport,Galway,Ireland,GWY,53.30020142,-8.941590309,air,,baeba528-3483-44a7-9dcf-c4071d9e0806
Dublin Airport,Dublin,Ireland,DUB,53.421299,-6.27007,air,,9c42980e-5eb5-4bec-9827-42e3069490d8
Ireland West Knock Airport,Connaught,Ireland,NOC,53.91030121,-8.818490028,air,,26d0e910-aa96-4f34-99e3-93233978f941
Kerry Airport,Kerry,Ireland,KIR,52.18090057,-9.523779869,air,,a6e3ced2-8a37-45fe-8f1c-2f52ebe13abc
Casement Air Base,Casement,Ireland,,53.30170059,-6.451330185,air,,3a3fc01d-13e9-4306-90b6-02110df6676e
Shannon Airport,Shannon,Ireland,SNN,52.702,-8.92482,air,,6d631b9c-bb32-4535-863c-f3447e90e974
Sligo Airport,Sligo,Ireland,SXL,54.28020096,-8.599209785,air,,f9023a33-3865-49ea-9bbe-46d06cb204c7
Waterford Airport,Waterford,Ireland,WAT,52.18719864,-7.086959839,air,,f041d550-af00-4d0a-80ef-e6ad829d0583
Aarhus Airport,Aarhus,Denmark,AAR,56.29999924,10.61900043,air,,f4ffa6b4-d961-46e1-a515-473bfb1e62b1
Billund Airport,Billund,Denmark,BLL,55.74029922,9.151780128,air,,686cdc51-3af7-4715-8ca4-f826c94cbbb6
Copenhagen Kastrup Airport,Copenhagen,Denmark,CPH,55.61790085,12.65600014,air,,e36dc222-de0a-43c1-86ff-6bf18caa0481
Esbjerg Airport,Esbjerg,Denmark,EBJ,55.525902,8.5534,air,,29fdd62b-15ff-4c04-8c08-4b2ef8e84289
Grønholt Hillerød Airport,Gronholt,Denmark,,55.94139862,12.38220024,air,,a400250e-d3bf-4575-a923-fc4a03b1d200
Karup Airport,Karup,Denmark,KRP,56.29750061,9.124629974,air,,fd037a2a-cc67-4ab0-8e30-4084c9a5a39a
Læsø Airport,Laeso,Denmark,BYR,57.27719879,11.00010014,air,,b0a8106e-360f-492b-8090-a20678d17e6b
Lolland Falster Maribo Airport,Maribo,Denmark,MRW,54.699299,11.4401,air,,992064f8-0e5c-4b15-9f83-ea8ccef57308
Odense Airport,Odense,Denmark,ODE,55.47669983,10.33090019,air,,450cf1f7-2d3d-4268-9573-3ceac4e305ce
Kruså-Padborg Airport,Krusa-padborg,Denmark,,54.87030029,9.279009819,air,,8c652e31-0be6-43e8-9950-6635eaae68cf
Copenhagen Roskilde Airport,Copenhagen,Denmark,RKE,55.58560181,12.13140011,air,,fa6eb7fe-b43d-4d90-b58f-473fd69a9463
Bornholm Airport,Ronne,Denmark,RNN,55.06330109,14.75959969,air,,9f04d815-54ef-43c9-aa70-d03b1fc7c227
Sønderborg Airport,Soenderborg,Denmark,SGD,54.96440125,9.791729927,air,,9ffb71da-cc08-4e75-9270-422213f99037
Skrydstrup Air Base,Skrydstrup,Denmark,SKS,55.221048,9.26702,air,,9bacba7b-6d52-4b21-9deb-b7b37377cedf
Skive Airport,Skive,Denmark,SQW,56.55020142,9.172980309,air,,c55c13ef-37c9-4aa0-bf21-6c8784813b1d
Thisted Airport,Thisted,Denmark,TED,57.06880188,8.705220222,air,,bde05ff3-d4c3-4f6c-b02b-9f8db8a61c17
Kolding Vamdrup Airfield,Kolding,Denmark,,55.436298,9.33092,air,,0accddaf-376e-4554-8b9a-e3b2ec6bd096
Vagar Airport,Vagar,Faroe Islands,FAE,62.06359863,-7.277219772,air,,8ba0166c-3d5f-440a-b727-2516eb5a33cf
Vesthimmerlands Flyveplads,Vesthimmerland,Denmark,,56.846901,9.45861,air,,a88c7eaf-160a-4f23-b197-e3c386ac271d
Stauning Airport,Stauning,Denmark,STA,55.99010086,8.353910446,air,,3e69585e-6abf-437b-b4e9-fa7d23442c7c
Aalborg Airport,Aalborg,Denmark,AAL,57.09275891,9.849243164,air,,a3572bed-b0e4-4f83-9372-341ecc3d414e
Luxembourg-Findel International Airport,Luxemburg,Luxembourg,LUX,49.6233333,6.2044444,air,,5ee1a647-5d06-4ad6-92be-eb01ee7dfb3c
Ålesund Airport,Alesund,Norway,AES,62.5625,6.119699955,air,,1755351c-e2d8-4505-ad7b-d458a19a40f8
Andøya Airport,Andoya,Norway,ANX,69.29250336,16.14419937,air,,565aa68c-97c8-40fe-a93a-07b0f50cf760
Alta Airport,Alta,Norway,ALF,69.97609711,23.37170029,air,,b2e26a13-64ff-4d3f-b855-4ba99682953b
Bømoen Airport,Voss,Norway,,60.63890076,6.50150013,air,,7dcebfad-6469-4f2f-9f66-cf959c9f2dfa
Brønnøysund Airport,Bronnoysund,Norway,BNN,65.46109772,12.21749973,air,,14b1f985-4385-43e1-a713-b049fb1909ad
Bodø Airport,Bodo,Norway,BOO,67.26920319,14.36530018,air,,b6fcc575-b0f5-48ec-8841-a6bebf4f5d56
Bergen Airport Flesland,Bergen,Norway,BGO,60.29339981,5.218140125,air,,d5b34085-587a-45d4-9a6e-0b617d23e0c5
Båtsfjord Airport,Batsfjord,Norway,BJF,70.60050201,29.69140053,air,,a5d4f3a7-b0ac-4a98-b08e-24112995c918
Kristiansand Airport,Kristiansand,Norway,KRS,58.204201,8.08537,air,,201fc8f6-8061-42b9-901f-ba3f6b412386
Geilo Airport Dagali,Geilo,Norway,DLD,60.41730118,8.518349648,air,,65d92f75-12ed-4e37-afb9-dcc6134ba309
Bardufoss Airport,Bardufoss,Norway,BDU,69.05580139,18.54039955,air,,3467da22-6b5c-4682-a62b-13f35e8ca2bc
"Harstad/Narvik Airport, Evenes",Harstad/Narvik,Norway,EVE,68.49130249,16.67810059,air,,43280f43-9028-4486-861a-a6fbba32a577
Leirin Airport,Fagernes,Norway,VDB,61.0155983,9.288060188,air,,e27f37cd-9545-4985-8992-ab6e345cc36b
Florø Airport,Floro,Norway,FRO,61.58359909,5.024720192,air,,75122bd6-d15c-458c-9e33-0890330010b0
Oslo Lufthavn,Oslo,Norway,OSL,60.121,11.0502,air,,b99f1fb2-39e4-4ac3-b40e-0520dcb22f74
Haugesund Airport,Haugesund,Norway,HAU,59.34529877,5.208360195,air,,2bb999b9-ebfe-4b01-86ee-9adfa860cfc4
Hasvik Airport,Hasvik,Norway,HAA,70.48670197,22.13969994,air,,52b3ce5a-4635-4b0f-b264-a3107ca97dba
Kristiansund Airport (Kvernberget),Kristiansund,Norway,KSU,63.11180115,7.824520111,air,,4d3af0ae-ea3a-4ef1-825e-e82a471939ca
Kjeller Airport,Kjeller,Norway,,59.96929932,11.03610039,air,,0510ab9e-6385-44fc-ad0d-5ce7cb719037
Kirkenes Airport (Høybuktmoen),Kirkenes,Norway,KKN,69.72579956,29.8913002,air,,cadc32b6-516a-4d23-9d6b-72aaf96cf347
Lista Airport,Farsund,Norway,FAN,58.09949875,6.626049995,air,,b72e3a1b-5d08-42c3-801e-1b0c54407b37
Molde Airport,Molde,Norway,MOL,62.74470139,7.262499809,air,,7bd2502b-95cf-4c7b-a03f-f2c248470b5c
Mosjøen Airport (Kjærstad),Mosjoen,Norway,MJF,65.78399658,13.21490002,air,,6179ae2c-3b33-4972-85a4-4781bf17c4e8
Banak Airport,Lakselv,Norway,LKL,70.06880188,24.9734993,air,,a39305e0-8e94-4d54-bfb3-5067fc446f69
Notodden Airport,Notodden,Norway,NTB,59.565701,9.21222,air,,2fa63d8f-c952-479c-8eb5-3b54809bd5d0
Ørland Airport,Orland,Norway,OLA,63.69889832,9.604000092,air,,3e17b204-e6ed-417d-99e8-36c1ba850177
Røros Airport,Roros,Norway,RRS,62.57839966,11.34230042,air,,ecf00879-a0e0-4296-bf4c-d74179849611
"Moss Airport, Rygge",Rygge,Norway,RYG,59.378817,10.785439,air,,4af2e491-83bb-4e3d-9ffb-37ea3dfa6af7
"Svalbard Airport, Longyear",Svalbard,Norway,LYR,78.24610138,15.46560001,air,,de9b3bc1-40a6-4997-a342-e710fcb61f7f
Skien Airport,Skien,Norway,SKE,59.18500137,9.566940308,air,,317283aa-d8b2-4868-a2dc-194cf8ebf42e
Stord Airport,Stord,Norway,SRP,59.79190063,5.340849876,air,,ec1bda8b-4a53-482a-a61d-28501dd5a529
Sandnessjøen Airport (Stokka),Sandnessjoen,Norway,SSJ,65.95680237,12.46889973,air,,0a50470c-5fbe-4f85-b3c5-4bf340d18ff6
"Tromsø Airport,",Tromso,Norway,TOS,69.6832962,18.91889954,air,,6717f077-e806-4216-ac89-97ade2b650d4
"Sandefjord Airport, Torp",Sandefjord,Norway,TRF,59.18669891,10.25860024,air,,7dab9ba4-0f83-4835-9698-6e77c3a2d321
Trondheim Airport Værnes,Trondheim,Norway,TRD,63.4578018,10.9239998,air,,a4230eb9-d30c-425e-9f93-ee30f4a5d8da
Stavanger Airport Sola,Stavanger,Norway,SVG,58.87670135,5.63778019,air,,c5b9efff-d28f-4fc3-a5ae-90c0a544c103
Babice Airport,Warsaw,Poland,,52.26850128,20.9109993,air,,bd6fd538-087f-4f51-aea9-7bf732f203a3
Gdańsk Lech Wałęsa Airport,Gdansk,Poland,GDN,54.37760162,18.46619987,air,,5a0f74a5-aeda-43f2-b99b-e14e21d6e4f1
Kraków John Paul II International Airport,Krakow,Poland,KRK,50.077702,19.7848,air,,fbc18967-e35f-4417-b438-9aea064ae491
Muchowiec Airport,Katowice,Poland,,50.23809814,19.03420067,air,,7ff4284e-b02b-44d9-afb7-6040a1d8f9bb
Katowice International Airport,Katowice,Poland,KTW,50.4743,19.08,air,,9d2fe78f-1d5b-42ea-a6f0-60863ee3ed95
Mielec Airport,Mielec,Poland,,50.32229996,21.46209908,air,,b156ae58-a190-4237-bcf3-d3a3d503359b
Poznań-Ławica Airport,Poznan,Poland,POZ,52.42100143,16.82629967,air,,b21b3db1-7691-430c-983a-a09ab182152e
Rzeszów-Jasionka Airport,Rzeszow,Poland,RZE,50.11000061,22.0189991,air,,078d8099-c688-45f1-bd07-f30e6196f7b7
"Szczecin-Goleniów ""Solidarność"" Airport",Szczecin,Poland,SZZ,53.58470154,14.90219975,air,,379637c2-a4bf-4067-a8e5-c704ffbead58
Redzikowo Air Base,Slupsk,Poland,OSP,54.47890091,17.10750008,air,,a51c237d-1d9d-4a90-8e96-511f41132dc8
Swidwin Military Air Base,Shapaja,Poland,,53.79059982,15.82629967,air,,f31a1940-1fb1-4939-ad33-83442e08b41f
Warsaw Chopin Airport,Warsaw,Poland,WAW,52.16569901,20.96710014,air,,b906c556-7ac5-466c-a05a-dd60d2b4e4cd
Copernicus Wrocław Airport,Wroclaw,Poland,WRO,51.10269928,16.88579941,air,,4a77e591-825d-4c81-b3ec-6fbae8b23de7
Zielona Góra-Babimost Airport,Zielona Gora,Poland,IEG,52.13850021,15.7986002,air,,f66b6363-8933-42b3-8236-7373e5616ae2
Malmen Air Base,Linkoeping,Sweden,,58.40230179,15.52569962,air,,d979d96e-954b-42c0-bdaf-403989b16853
Bråvalla Air Base,Norrkoeping,Sweden,,58.61090088,16.10359955,air,,4f9cd117-9598-4b5f-b5f9-bb846e9b3bde
Uppsala Airport,Uppsala,Sweden,,59.89730072,17.58860016,air,,e14bbb72-1cc8-40e4-9968-1cbda69b7f7a
Ronneby Airport,Ronneby,Sweden,RNB,56.26670074,15.26500034,air,,99a30783-e692-45b1-8991-73adb883c83c
Råda Air Base,Rada,Sweden,,58.49810028,13.05319977,air,,86532f54-3aa0-467a-9abf-d5c4d0af1b45
Gothenburg-Landvetter Airport,Gothenborg,Sweden,GOT,57.66279984,12.27980042,air,,7bda3654-fbb2-4e63-8c3d-e9f259651cea
Jönköping Airport,Joenkoeping,Sweden,JKG,57.75759888,14.06869984,air,,426ca282-5422-47ee-9342-376896e0bc59
Falköping Airport,Falkoping,Sweden,,58.1697998,13.58780003,air,,4a5981a9-99ea-49c2-b059-e59017ec4af2
Lidköping-Hovby Airport,Lidkoping,Sweden,LDK,58.4655,13.1744,air,,bb252159-4ae7-49fe-a65d-6ef7388f535e
Gothenburg City Airport,Gothenborg,Sweden,GSE,57.7747,11.8704,air,,e7feba8f-daf6-4b72-b11a-643955fb0efa
Skövde Airport,Skovde,Sweden,KVB,58.45640182,13.97270012,air,,a7e8c99d-cd2d-4954-baa8-7601e8f0ead4
Trollhättan-Vänersborg Airport,Trollhattan,Sweden,THN,58.31809998,12.34500027,air,,d2ad4816-3674-4748-99b6-551e76e33c0c
Karlsborg Air Base,Karlsborg,Sweden,,58.51380157,14.50710011,air,,175246de-5b21-45be-a0af-23bf76029290
Såtenäs Air Base,Satenas,Sweden,,58.42639923,12.71440029,air,,0a0b1df6-7f31-4f8f-9c0c-c4506acd9ef5
Barkarby Airport,Stockholm,Sweden,,59.41447436,17.8821373,air,,1f2afc49-8e97-4d2b-85f6-ac8f98b3787f
Karlskoga Airport,Karlskoga,Sweden,KSK,59.34590149,14.49590015,air,,c3ad69bc-9f94-481d-9d4c-26ae75b59fd6
Mora Airport,Mora,Sweden,MXX,60.957901,14.5114,air,,6ab7de24-a347-4aab-baab-0e0f79a3a3ec
Stockholm Skavsta Airport,Stockholm,Sweden,NYO,58.78860092,16.91220093,air,,add3b9e0-55bd-4dc9-8aaf-266a56ffa617
Arvika Airport,Arvika,Sweden,,59.6759,12.6394,air,,0726b717-ba7a-4adf-81bb-0d6092902ebf
Emmaboda Airfield,Emmaboda,Sweden,,56.610802,15.6048,air,,257313a4-7aa9-4dd5-897c-6d038e1d6e47
Feringe Airport,Ljungby,Sweden,,56.95029831,13.92169952,air,,a9268134-fcec-476d-8889-27f18ff64d86
Kristianstad Airport,Kristianstad,Sweden,KID,55.92169952,14.08549976,air,,d7f6730d-1c9a-4109-ba85-9048bcace2d3
Landskrona Airport,Landskrona,Sweden,,55.94599915,12.86999989,air,,0b4a05e7-d489-4048-a77e-78ebe4d863ea
Oskarshamn Airport,Oskarshamn,Sweden,OSK,57.350498,16.497999,air,,16651fd5-e8d4-4c5e-8cec-1da21fb27a26
Anderstorp Airport,Anderstorp,Sweden,,57.2641983,13.59939957,air,,3228ded1-6da8-4f76-a8e5-9463c28e076f
Kalmar Airport,Kalkmar,Sweden,KLR,56.6855011,16.28759956,air,,494b59c6-831a-4769-9df8-1c6d9ea14863
Malmö Sturup Airport,Malmoe,Sweden,MMX,55.53630536,13.37619781,air,,5539bcbf-48ed-496b-bd90-d05e330dc126
Halmstad Airport,Halmstad,Sweden,HAD,56.69110107,12.82019997,air,,f52e69b9-fbc7-4a0b-8449-a1adedd2af8a
Hagshult Air Base,Hagshult,Sweden,,57.292198,14.1372,air,,f03b54f8-c7fe-46b4-8076-741926045e7c
Växjö Kronoberg Airport,Vaxjo,Sweden,VXO,56.92910004,14.72799969,air,,13a1fc03-f7f2-41ab-925d-12bbcb139c75
Hallviken Airport,Hallviken,Sweden,,63.73830032,15.45829964,air,,04c750b1-1cbd-4238-a7d6-958a4a373f67
Hedlanda Airport,Hede,Sweden,,62.40890121,13.74720001,air,,ab3f265c-61f1-4161-a789-7e6071c08487
Sveg Airport,Sveg,Sweden,EVG,62.04779816,14.4229002,air,,dba5eea9-e61e-47b3-bf6a-385a5e1493a0
Gällivare Airport,Gallivare,Sweden,GEV,67.13240051,20.81459999,air,,6481a91d-906b-4ebc-badc-e8475ff529fc
Hudiksvall Airport,Hudiksvall,Sweden,HUV,61.76810074,17.08069992,air,,809f2c40-5670-47ea-945d-cc3fec819d4e
Jokkmokk Airport,Jokkmokk,Sweden,,66.49620056,20.14719963,air,,d53cda57-76e0-4d5a-8d3b-7b8238609455
Kramfors Sollefteå Airport,Kramfors,Sweden,KRF,63.04859924,17.76889992,air,,db0bbb92-17f5-44c3-bb90-6a3e7eb06a01
Lycksele Airport,Lycksele,Sweden,LYC,64.5483017,18.71619987,air,,4195e215-b46a-45ac-b26c-c3628e1dc5de
Optand Airport,Optand,Sweden,,63.12860107,14.80280018,air,,c7bdd9a8-0080-4ade-9d7f-0d3563a9fcd3
Sundsvall-Härnösand Airport,Sundsvall,Sweden,SDL,62.52809906,17.44389915,air,,1fe2a1e7-38e6-4c85-9fd2-ed52f43e1b39
Örnsköldsvik Airport,Ornskoldsvik,Sweden,OER,63.40829849,18.98999977,air,,cc736315-c9dd-41ed-b011-72f111116196
Piteå Airport,Pitea,Sweden,,65.39830017,21.26079941,air,,43517ff2-c0b3-47b2-aaa0-14ccca78e590
Kiruna Airport,Kiruna,Sweden,KRN,67.8219986,20.33679962,air,,a8fc3ae5-c750-4219-82e6-247d132e2fdf
Orsa Airport,Orsa,Sweden,,61.18999863,14.71259975,air,,4c7a1d1c-0679-4a24-9818-d85f0186ea6c
Skellefteå Airport,Skelleftea,Sweden,SFT,64.62480164,21.07690048,air,,0ff3dfcd-17bd-47ec-94ef-e6c9f18d21b9
Sättna Airport,Sattna,Sweden,,62.4814,17.002899,air,,c8bf3c1c-bf22-436f-bc6f-1cd30606e3f1
Umeå Airport,Umea,Sweden,UME,63.79180145,20.28280067,air,,2198490f-dbd9-4bf3-b6ec-92b43259c6cb
Vilhelmina Airport,Vilhelmina,Sweden,VHM,64.57910156,16.83359909,air,,7d63dbbc-6bfd-4358-8101-fcf0f1429a5c
Arvidsjaur Airport,Arvidsjaur,Sweden,AJR,65.59030151,19.28190041,air,,129e7e2b-a80a-41cb-929b-fff842d5428e
Örebro Airport,Orebro,Sweden,ORB,59.22370148,15.03800011,air,,fb67e877-bae6-4754-95e7-ed96e15c1e0a
Stockholm Västerås Airport,Vasteras,Sweden,VST,59.58940125,16.63360023,air,,1a7583a1-2577-42f0-b72d-2ba24d306894
Luleå Airport,Lulea,Sweden,LLA,65.54380035,22.12199974,air,,e7643bff-3fba-429e-9562-15fbb54cfafd
Vidsel Air Base,Vidsel,Sweden,,65.87529755,20.14990044,air,,b4e74912-f2de-469f-a331-84b39448285b
Arboga Airport,Arboga,Sweden,,59.38660049,15.92409992,air,,c506db01-170d-4942-94a1-dd2f2e8bc080
Stockholm-Arlanda Airport,Stockholm,Sweden,ARN,59.65190125,17.91860008,air,,704bdb9e-1865-4d44-9cda-73c062aea66c
Stockholm-Bromma Airport,Stockholm,Sweden,BMA,59.35440063,17.94169998,air,,54ee6146-f6de-4ffb-b862-f2ccf31000e6
Borlange Airport,Borlange,Sweden,BLE,60.42200089,15.51519966,air,,3bb0e339-981d-4151-b514-64e905933eca
Hultsfred Airport,Hultsfred,Sweden,HLF,57.525799,15.8233,air,,4f046605-2dc3-43ff-9e8f-ab53a4fe9984
Gävle Sandviken Airport,Gavle,Sweden,GVX,60.59329987,16.95140076,air,,c990411a-0a1d-48bd-93b3-5015e875bc42
Linköping City Airport,Linkoeping,Sweden,LPI,58.40620041,15.68050003,air,,00ba3275-7dde-4220-8979-7fe0126e3b1f
Norrköping Airport,Norrkoeping,Sweden,NRK,58.5862999,16.25060081,air,,7ee6d82a-89ee-4afe-b038-1da129d38218
Eskilstuna Airport,Eskilstuna,Sweden,EKT,59.35110092,16.70840073,air,,a04208b6-f4f7-4679-af54-dbd03663f465
Visby Airport,Visby,Sweden,VBY,57.66279984,18.34620094,air,,7efac28f-4b41-4250-82f0-d65e8ffc884f
Kalixfors Airport,Kalixfors,Sweden,,67.76480103,20.25720024,air,,b7956c39-dbfb-4d52-bdcb-009dbd1cda68
Spangdahlem Air Base,Spangdahlem,Germany,SPM,49.97269821,6.692500114,air,,821275a8-9815-4912-b213-905cfb1c1d83
Ramstein Air Base,Ramstein,Germany,RMS,49.43690109,7.600279808,air,,9fb2c9a5-82a0-4319-a560-83a49af3b801
[Duplicate] Giebelstadt Army Air Field,Giebelstadt,Germany,GHF,49.64810181,9.966489792,air,,f11b32b5-ab7e-4010-be15-15b7d334ed39
Bückeburg Air Base,Brueckeburg,Germany,,52.2785,9.08217,air,,33f0f416-3802-4785-adc3-e0577b8a70c3
Celle Airport,Celle,Germany,ZCN,52.59120178,10.02210045,air,,f9495aef-057a-483a-9bd5-f540dbf509e7
Rheine Bentlage Air Base,Rheine-brentlange,Germany,,52.291199,7.387,air,,ca010cec-fd0d-4a15-9a5d-b049c8e8eda4
Fritzlar Airport,Fritzlar,Germany,FRZ,51.1146,9.286,air,,16d000bb-a7ad-4c49-aac7-cb3d9f7c2210
Laupheim Air Base,Laupheim,Germany,,48.220299,9.91002,air,,9ff08851-b30f-4aad-b3e6-201ac28ba89a
Mendig Airfield,Mendig,Germany,,50.366001,7.31533,air,,e15da35a-3403-47db-bd66-55ab65b95608
Niederstetten Army Air Base,Niederstetten,Germany,,49.391945,9.958889,air,,be6ec95e-cbab-401a-8868-6af484f2b72f
Roth Airport,Roth,Germany,,49.21749878,11.1001997,air,,06e785ea-7c23-4fd0-a36c-8514ef306183
Fassberg Air Base,Fassberg,Germany,,52.919399,10.185827,air,,47fbfa07-ac4b-462f-af78-07c6001f2f91
Grafenwohr Army Air Field,Grafenwoehr,Germany,,49.69869995,11.94019985,air,,26f40496-7550-4170-89ba-cde74840d5da
Hanau Army Air Field,Hanau,Germany,ZNF,50.169201,8.96159,air,,b03334fa-603c-4d14-89e5-f9d84237c6b7
Hohenfels Army Air Field,Hohenfels,Germany,,49.2181015,11.83609962,air,,6499d0ab-9247-46e2-981e-698520ec8c22
Flugplatz Kitzingen,Kitzingen,Germany,KZG,49.743099,10.2006,air,,a3a7a1b5-3668-421c-80cf-bb5bc33fdade
Nordholz Naval Airbase,Nordholz,Germany,FCN,53.7677002,8.658499718,air,,1e2f0f48-a076-4502-b643-c54f60a3a5e6
Diepholz Air Base,Diepholz,Germany,,52.585556,8.342222,air,,ca825e1d-a70f-4a73-932e-c2e7a2b5f34e
Geilenkirchen Air Base,Geilenkirchen,Germany,GKE,50.9608,6.04242,air,,4fdaf86e-7c6b-43ab-b83d-a1c10f6508cb
Hohn Air Base,Hohn,Germany,,54.312199,9.53817,air,,823078ad-3831-4046-8514-8bb1f18562e9
Jever Air Base,Jever,Germany,,53.533501,7.88867,air,,d857545b-3598-4f44-85eb-946787b7e403
Rostock-Laage Airport,Laage,Germany,RLG,53.91820145,12.27830029,air,,c80d9871-4d44-4d9a-b9c3-33243194ba03
Nörvenich Air Base,Noervenich,Germany,,50.8312,6.65817,air,,7d360a9d-1e6a-4920-b652-63ea49cd955f
Schleswig Air Base,Schleswig,Germany,WBG,54.459301,9.51633,air,,6aaf58da-640d-49b4-bfe5-6b906c2a4c38
Wittmundhafen Airport,Wittmundhafen,Germany,,53.54779816,7.667329788,air,,43b1e15e-c3c6-447b-ad77-2fa27c76fc38
Wunstorf Air Base,Wunstorf,Germany,,52.457298,9.42717,air,,ecd17f5c-3ac7-4aff-8604-c758475aa7e5
Vilseck Army Air Field,Vilseck,Germany,,49.63359833,11.76720047,air,,881be8db-6fbb-4f7c-8152-0042122cc654
Coleman Army Air Field,Coleman,Germany,,49.56359863,8.46339035,air,,e1532dc4-e0c0-40f8-8f38-d0201582634a
Wiesbaden Army Airfield,Wiesbaden,Germany,WIE,50.04980087,8.325400352,air,,1c5656d3-9299-433d-a1e9-9b4e8e779e33
Landsberg Lech Air Base,Landsberg,Germany,,48.070599,10.906,air,,da941db0-5da5-4857-af47-81aa24f5f2ca
Büchel Air Base,Buechel,Germany,,50.17380142,7.063330173,air,,8568532b-45b2-424a-a97a-a5aa8d1af704
Erding Airport,Erding,Germany,,48.32229996,11.94869995,air,,3bf365d0-0eab-46b4-8a3e-a9172cd6c2c2
Fürstenfeldbruck Air Base,Fuerstenfeldbruck,Germany,FEL,48.205555,11.266944,air,,6cb26916-002f-482e-b8ab-462fc34ebfe7
Holzdorf Air Base,Holzdorf,Germany,,51.767799,13.1677,air,,309fe695-a009-4c25-8274-ad048f6bea37
Ingolstadt Manching Airport,Ingolstadt,Germany,IGS,48.71569824,11.5340004,air,,618b74a2-e4a2-4ffe-92c5-56d155aa8f8d
Lechfeld Air Base,Lechfeld,Germany,,48.185504,10.8612,air,,b68f6703-7d3c-40d4-a197-f0431a05fb8d
Neuburg AFB,Neuburg,Germany,,48.710999,11.2115,air,,2d17bb1d-1d1a-4f22-82da-875efbe83d3f
Gütersloh Air Base,Guetersloh,Germany,GUT,51.922798,8.30633,air,,8c8d4404-3a46-42f5-84cf-5b5144708d9f
Alexander Bay Airport,Alexander Bay,South Africa,ALJ,-28.575001,16.5333,air,,93b0883a-2a25-4abe-83d6-7c7ad41fd36a
Aggeneys Airport,Aggeneys,South Africa,AGZ,-29.28179932,18.81389999,air,,48e0d0fe-0bf5-4430-9ccd-39178e477063
Brakpan Airport,Brakpan,South Africa,,-26.23859978,28.30179977,air,,b4908a8a-c762-4a5e-a2e9-dfe54c13f03b
Bisho Airport,Bisho,South Africa,BIY,-32.89709854,27.27910042,air,,03600152-a3fd-4231-abbc-cb486d9305db
Bram Fischer International Airport,Bloemfontein,South Africa,BFN,-29.09269905,26.30240059,air,,a5052d1d-11c7-43d0-92c2-1c41c37141d0
Bethlehem Airport,Bethlehem,South Africa,,-28.24839973,28.33609962,air,,ba6ff2e0-02c2-4afd-b3f8-ec6f3479cf7f
Hendrik Potgieter Airport,Bothaville,South Africa,,-27.36680031,26.62919998,air,,da20c78c-31b3-4ef5-ac85-e2c958aeb21c
Cape Town International Airport,Cape Town,South Africa,CPT,-33.96480179,18.60169983,air,,24e9b108-eafb-41de-862b-1cc7346a2ebb
Calvinia Airport,Calvinia,South Africa,,-31.50029945,19.72590065,air,,2a091599-b680-4f21-8894-f6ba5dcedc5e
King Shaka International Airport,Durban,South Africa,DUR,-29.61444444,31.11972222,air,,ca24c489-912a-4465-83cc-cfeb399bbfaf
Ben Schoeman Airport,East London,South Africa,ELS,-33.03559875,27.82589912,air,,5f7d1cf5-382d-4bdb-88b6-927fe563eb1f
Ermelo Airport,Ermelo,South Africa,,-26.49559975,29.97979927,air,,90b56020-a5ec-4169-b30e-ab9948132755
Ficksburg Sentraoes Airport,Ficksburg,South Africa,FCB,-28.82309914,27.90889931,air,,6d728830-9aad-4320-810d-81cfabc4207a
Grand Central Airport,Johannesburg,South Africa,GCJ,-25.98629951,28.14010048,air,,2dd29a4f-f363-4aac-a39f-69bfe4a3f3cc
George Airport,George,South Africa,GRJ,-34.0056,22.378902,air,,6b604844-850c-49ec-8d44-3e57236c74a3
Graaff Reinet Airport,Graaff Reinet,South Africa,,-32.1935997,24.54140091,air,,b686f052-efd3-4a39-aab8-087dc1f769de
Grahamstown Airport,Grahamstown,South Africa,,-33.28469849,26.49810028,air,,acdc6ff0-441e-43b1-9a25-da0a77de0fa6
Greytown Airport,Greytown,South Africa,,-29.12199974,30.58670044,air,,c7bbf1c0-4215-4d9c-823d-0bbd7a2f4792
Harmony Airport,Harmony,South Africa,,-28.07869911,26.86120033,air,,e4a90284-c4cf-44b5-8206-439e0c881ddc
Harrismith Airport,Harrismith,South Africa,HRS,-28.23509979,29.10619926,air,,859cf014-ccc7-4f3f-a618-459f38bde8e0
Hoedspruit Air Force Base Airport,Hoedspruit,South Africa,HDS,-24.36860085,31.04870033,air,,3870d22c-2764-4c1b-96f3-c6e2415ad1e7
Gariep Dam Airport,Hendrik Verwoerddam,South Africa,,-30.56220055,25.52829933,air,,55e3e8f4-221f-437b-bcb6-8420667797dd
OR Tambo International Airport,Johannesburg,South Africa,JNB,-26.1392,28.246,air,,e83a0592-8fd6-4e05-9174-648dd8ab3ba3
P C Pelser Airport,Klerksdorp,South Africa,KXE,-26.87109947,26.71800041,air,,5e84977e-b233-49b1-bcfa-aaa54d91f411
Kimberley Airport,Kimberley,South Africa,KIM,-28.80279922,24.76519966,air,,e08349cc-e8d3-449c-aca5-249d3ac8f90f
Krugersdorp Airport,Krugersdorp,South Africa,,-26.08082592,27.72591496,air,,9161b474-513d-444b-9f42-21876dbf4726
Kroonstad Airport,Kroonstad,South Africa,,-27.66060066,27.31579971,air,,b5422212-b927-41a3-81a1-228337060819
Johan Pienaar Airport,Kuruman,South Africa,KMH,-27.45669937,23.41139984,air,,7c23c98f-f558-42ab-897e-7ac3443c18fb
Kleinsee Airport,Kleinsee,South Africa,KLZ,-29.68840027,17.09399986,air,,a00f292e-13aa-4314-8c70-d1c54534f10c
Lanseria Airport,Johannesburg,South Africa,HLA,-25.93849945,27.92609978,air,,a824b6dc-8b64-4dcf-afae-92c6d78e9e44
Lichtenburg Airport,Lichtenburg,South Africa,,-26.17569923,26.18460083,air,,bfcbd259-546a-4de2-a2dc-b5f98be277f0
Makhado Air Force Base Airport,Lambertsbaai,South Africa,,-23.15990067,29.69650078,air,,ecefa067-d2da-454d-a017-923e34903723
Langebaanweg Airport,Langebaanweg,South Africa,SDB,-32.96889877,18.1602993,air,,14325ec5-b8be-4ca5-8691-33a1c058ba02
Ladysmith Airport,Ladysmith,South Africa,LAY,-28.58169937,29.74970055,air,,4af018ae-e42d-4f62-b0eb-398ce8e17785
Middelburg Airport,Middelburg,South Africa,,-25.68479919,29.44020081,air,,f9ec6885-b4a8-4ee0-a5b2-e68621338de0
Margate Airport,Margate,South Africa,MGH,-30.85740089,30.34300041,air,,0f0536b6-98cd-483c-9c35-465ee4224123
Marble Hall Airport,Marble Hall,South Africa,,-24.9890995,29.28310013,air,,ff4bb3c4-b774-4a95-b2a2-6892b365d9ca
Majuba Power Station Airport,Majuba Power Station,South Africa,,-27.07929993,29.7784996,air,,624f0913-d02b-49bf-a3ba-349846e3e3e3
Riverside Airport,Malalane,South Africa,LLE,-25.43000031,31.57670021,air,,f721d858-3fe5-4988-bc32-a3481e7e60f0
Morningside Farm Airport,Musina,South Africa,,-25.7045002,26.9090004,air,,91309102-1fd3-4340-86ef-620d32ab6c7b
Mkuze Airport,Mkuze,South Africa,MZQ,-27.62610054,32.04430008,air,,354e8e3e-e48f-45ae-b157-db91acf5af7c
Newcastle Airport,Newcastle,South Africa,NCS,-27.77059937,29.9769001,air,,7f7478ac-689e-4652-afb4-fb96e2dedcf4
Nylstroom Airfield,Nylstroom,South Africa,,-24.68610001,28.43490028,air,,f175f237-6a26-451a-99e5-a779fc12c315
Overberg Airport,Overberg,South Africa,OVG,-34.55490112,20.2507,air,,2dbc681a-497a-4f97-830f-32f922447713
Oudtshoorn Airport,Oudtshoorn,South Africa,OUH,-33.60699844,22.18899918,air,,b6c9c252-91cd-45cd-8f77-e504264732e2
Port Elizabeth Airport,Port Elizabeth,South Africa,PLZ,-33.98490143,25.61730003,air,,3c851a45-fd05-46cb-9180-5b8c8681dc0a
Plettenberg Bay Airport,Plettenberg Bay,South Africa,PBZ,-34.08816017,23.32872343,air,,bb11278e-4375-4228-a4b2-6bba3022fb3c
Hendrik Van Eck Airport,Phalaborwa,South Africa,PHW,-23.93720055,31.15539932,air,,677a4c30-e024-4f50-8b0b-a6f2569597d3
Pietersburg Municipal Airport,Polokwane,South Africa,,-23.92609978,29.4843998,air,,97896798-8e8f-4ce6-b13b-678f7e8d8b77
Port St Johns Airport,Port Saint Johns,South Africa,JOH,-31.60589981,29.51980019,air,,63699df7-c9c9-43d3-a879-826103f9a002
Pietermaritzburg Airport,Pietermaritzburg,South Africa,PZB,-29.64900017,30.39870071,air,,dc339290-8b59-4668-ae2f-c02e5ab05ab2
Pilanesberg International Airport,Pilanesberg,South Africa,NTY,-25.33379936,27.17340088,air,,880a4680-ac19-4bff-a29f-ffd2ecec42a2
Polokwane International Airport,Potgietersrus,South Africa,PTG,-23.845269,29.458615,air,,647fba40-f507-49a4-a4b0-7d22f0a62cab
Potchefstroom Airport,Potchefstroom,South Africa,PCF,-26.67099953,27.08189964,air,,0bec74f9-6d95-44e9-aec6-c2e319c9967b
Parys Airport,Parys,South Africa,,-26.88929939,27.5034008,air,,6f4fc139-946f-4d6d-83f7-c8703a536cfd
Queenstown Airport,Queenstown,South Africa,UTW,-31.92020035,26.88220024,air,,8e3ff3ea-3ffb-487b-a0e8-c5d6a2fae66b
Richards Bay Airport,Richard's Bay,South Africa,RCB,-28.74099922,32.09209824,air,,1ecae5dd-394c-466f-9e9c-86f5683d98cc
Rustenburg Airport,Rustenburg,South Africa,,-25.64430046,27.27109909,air,,08a154a8-eab6-448e-929d-c8937b4c7384
Robertson Airport,Robertson,South Africa,ROD,-33.81219864,19.90279961,air,,e9549269-a95b-4a94-af71-caccfea77f0b
Springbok Airport,Springbok,South Africa,SBU,-29.68930054,17.93959999,air,,58349fd1-4a8c-4199-8213-5880c0b5f370
Secunda Airport,Secunda,South Africa,ZEC,-26.52409935,29.17009926,air,,d64adb73-759f-4800-b7ac-4666e5ae6ebb
Saldanha /Vredenburg Airport,Saldanha,South Africa,,-32.96409988,17.96929932,air,,1fbb51ee-a123-49aa-b173-eb7368ce4e0f
Springs Airfield,Springs,South Africa,,-26.24940047,28.39827156,air,,dd1929b5-3aeb-465a-a861-87cff464171d
Swartkop Air Force Base,Swartkop,South Africa,,-25.80970001,28.16460037,air,,098baf56-3132-4315-a5ce-07f6f778dd3a
Sishen Airport,Sishen,South Africa,SIS,-27.64859962,22.9993,air,,6643cd71-5fce-4f03-9f85-1e6713ea5670
Hendrik Swellengrebel Airport,Swellendam,South Africa,,-34.0481987,20.47459984,air,,54fce4cd-44f3-4bfd-9781-231ddde62e30
Skukuza Airport,Skukuza,South Africa,SZK,-24.96089935,31.58869934,air,,1476e23d-e82b-4a67-ace1-76966b447bb0
Tommys Field Airport,Tommy's Field,South Africa,,-28.26000023,22.9932003,air,,94d942fb-cd51-4fd8-b357-4b195244bedc
New Tempe Airport,Bloemfontein,South Africa,,-29.03289986,26.1576004,air,,85e903aa-8be4-4d82-a7aa-a07dabb6814a
Tutuka Power Station Airport,Tutuka,South Africa,,-26.77659988,29.33880043,air,,2b23f421-2be6-4daa-a84e-d674906b1ca2
Tzaneen Airport,Tzaneen,South Africa,LTA,-23.82439995,30.32929993,air,,f4922b03-c26e-4755-ab62-47c5ee6e28cc
Prince Mangosuthu Buthelezi Airport,Ulundi,South Africa,ULD,-28.32060051,31.41650009,air,,ba94ac78-10e0-49b3-98d5-57919a52520c
Pierre Van Ryneveld Airport,Upington,South Africa,UTN,-28.39909935,21.2602005,air,,e3547556-f46f-4571-a667-e56e61250d80
K. D. Matanzima Airport,Umtata,South Africa,UTT,-31.54636318,28.6733551,air,,c5ffbdfe-bf38-475c-ac39-1457abea95cc
Vryburg Airport,Vryburg,South Africa,VRU,-26.98240089,24.72879982,air,,29df895e-6d30-43ee-8f22-229530224f6f
Virginia Airport,Durban,South Africa,VIR,-29.77059937,31.0583992,air,,159f918b-ed77-42a3-879f-c15709d08a47
Vredendal Airport,Vredendal,South Africa,VRE,-31.64100075,18.5447998,air,,4bb00842-7817-415e-9956-4ad44c43d832
Vereeniging Airport,Vereeniging,South Africa,,-26.56640053,27.96080017,air,,0bfddf5b-ef7c-44ec-a4f4-e2fa65809c2f
Wonderboom Airport,Pretoria,South Africa,PRY,-25.6539,28.224199,air,,3544a3b3-f310-45ea-ac5f-5add82b1aa24
Witbank Airport,Witbank,South Africa,,-25.83230019,29.19199944,air,,2ef166c4-36f7-44b7-8969-ea681e4b7097
Waterkloof Air Force Base,Waterkloof,South Africa,WKF,-25.82999992,28.22249985,air,,060dac8b-1b5b-4a72-8575-cea592b9cbcc
Welkom Airport,Welkom,South Africa,,-27.99682451,26.66333389,air,,ad910214-71d4-4d83-b346-d337a9d94a61
Ysterplaat Air Force Base,Ysterplaat,South Africa,,-33.90019989,18.49830055,air,,c34dfcec-78b7-4cec-bb2d-5df7f8da4e3c
Zeerust Airport,Zeerust,South Africa,,-25.59900093,26.04229927,air,,34be2d27-c9a2-406b-a3f6-6e83b5ee49a2
Francistown Airport,Francistown,Botswana,FRW,-21.1595993,27.47450066,air,,83707068-47c4-41c6-9fb4-a305bebec26b
Jwaneng Airport,Jwaneng,Botswana,JWA,-24.60230064,24.69099998,air,,7c0691f5-230c-4e27-933e-393c7c938db7
Kasane Airport,Kasane,Botswana,BBK,-17.83289909,25.16239929,air,,f2a34920-6e46-4775-97b4-8388be7c7fb1
Maun Airport,Maun,Botswana,MUB,-19.97260094,23.43110085,air,,ee024f6a-a390-4654-8a23-853e61ebda42
Sir Seretse Khama International Airport,Gaberone,Botswana,GBE,-24.555201,25.9182,air,,23eca94b-1093-4b2c-8e6e-6f693ed376ca
Selebi Phikwe Airport,Selebi-phikwe,Botswana,PKW,-22.0583,27.8288,air,,df7365a0-2c2f-4f26-a398-e430a44cbc05
Maya-Maya Airport,Brazzaville,Congo (Brazzaville),BZV,-4.251699924,15.25300026,air,,465c7401-b36b-4091-a335-9d85b8d8457c
Owando Airport,Owando,Congo (Kinshasa),FTX,-0.531350017,15.95009995,air,,522f381b-1751-4c85-83d2-173d332f7a81
Ouesso Airport,Ouesso,Congo (Kinshasa),OUE,1.615990043,16.03790092,air,,e3981a27-ac73-4c3c-a792-37d884b6701d
Pointe Noire Airport,Pointe-noire,Congo (Brazzaville),PNR,-4.816030025,11.88659954,air,,7e5ac8d7-4828-430d-9267-4c84feac4727
Matsapha Airport,Manzini,Swaziland,MTS,-26.52899933,31.30750084,air,,43a1020c-e76a-4503-9de0-9722123ca4aa
Bangui M'Poko International Airport,Bangui,Central African Republic,BGF,4.398479939,18.51880074,air,,5019907e-3e4f-4950-8149-9e6ed5fbd131
Berbérati Airport,Berberati,Central African Republic,BBT,4.221580029,15.78639984,air,,b9864976-0560-4a8a-83b2-5fa27cc81092
Bata Airport,Bata,Equatorial Guinea,BSG,1.905470014,9.805680275,air,,e0d4954d-0104-4cb1-b136-ae8b814c572c
Malabo Airport,Malabo,Equatorial Guinea,SSG,3.755270004,8.708720207,air,,7a223cb6-71e3-477a-b5a9-717bae2e5355
RAF Ascension Island,Wide Awake,Saint Helena,ASI,-7.9696,-14.3937,air,,aca9d58d-dee6-4859-b428-f26bdc00d2dc
Sir Seewoosagur Ramgoolam International Airport,Plaisance,Mauritius,MRU,-20.430201,57.683601,air,,04b5a218-ea9d-4ddd-8c38-7e9c34f92c1f
Sir Charles Gaetan Duval Airport,Rodriguez Island,Mauritius,RRG,-19.7577,63.361,air,,b819f889-d6b6-457d-8d10-756ab0a6ab90
Diego Garcia Naval Support Facility,Diego Garcia Island,British Indian Ocean Territory,NKW,-7.31327,72.411102,air,,3d26eb8c-67b6-4bad-856d-858cb58e782c
Tiko Airport,Tiko,Cameroon,TKC,4.089190006,9.3605299,air,,346f1155-d140-4c1e-874a-bbef609209bd
Douala International Airport,Douala,Cameroon,DLA,4.006080151,9.719479561,air,,c644aa9a-8c1c-45a1-b8ba-6437371e1a55
Salak Airport,Maroua,Cameroon,MVR,10.4513998,14.25739956,air,,da79fa2d-1388-437d-b269-39530b883248
Foumban Nkounja Airport,Foumban,Cameroon,FOM,5.636919975,10.75080013,air,,b8687060-8d4d-43c0-b0a0-80fb52b333d7
N'Gaoundéré Airport,N'gaoundere,Cameroon,NGE,7.357009888,13.55920029,air,,0e553e05-fe26-472a-a0e5-d8756336dce2
Garoua International Airport,Garoua,Cameroon,GOU,9.335889816,13.37010002,air,,9db38746-497b-4b57-af87-d9fcaffc0c7f
Bafoussam Airport,Bafoussam,Cameroon,BFX,5.536920071,10.35459995,air,,b06841c1-c410-4d55-9d05-9d2333ffcaef
Bamenda Airport,Bamenda,Cameroon,BPC,6.039239883,10.1225996,air,,859d218d-8993-4e9f-91bd-a72114cc9ae9
Yaoundé Airport,Yaounde,Cameroon,YAO,3.83604002,11.52350044,air,,03ce37c0-42f4-457b-81b9-d60f707d5177
Kasompe Airport,Kasompe,Zambia,CGJ,-12.57279968,27.89389992,air,,275244f1-7f46-4661-bdb6-a12af0784f8c
Livingstone Airport,Livingstone,Zambia,LVI,-17.82180023,25.8227005,air,,2fdadb03-a19b-4dde-a3af-f4c21cbb3963
Kenneth Kaunda International Airport Lusaka,Lusaka,Zambia,LUN,-15.33080006,28.45260048,air,,99a094c8-7d6a-4ba2-a060-c1a5a859c793
Mfuwe Airport,Mfuwe,Zambia,MFU,-13.25889969,31.93659973,air,,409e8743-240a-44b7-b14f-8cc486b470de
Mongu Airport,Mongu,Zambia,MNR,-15.25450039,23.16230011,air,,c8781565-da51-48b0-80b5-b5fe02667f82
Simon Mwansa Kapwepwe International Airport,Ndola,Zambia,NLA,-12.99810028,28.66489983,air,,c4714cbc-68ec-4f86-b4bf-dbb2587647eb
Southdowns Airport,Southdowns,Zambia,KIW,-12.9005003,28.14990044,air,,95835637-0fe5-4ded-bf7c-4d31e22f2b74
Prince Said Ibrahim International Airport,Moroni,Comoros,HAH,-11.5337,43.2719,air,,29c77ee8-d8dd-400d-8013-dc62bb0f27df
Mohéli Bandar Es Eslam Airport,Moheli,Comoros,NWA,-12.29810047,43.76639938,air,,fe21d49f-ec18-4e50-be72-1337cc4eda61
Ouani Airport,Anjouan,Comoros,AJN,-12.13169956,44.43030167,air,,3dacae2a-364f-43a7-bd9c-197c8cdbd10e
Dzaoudzi Pamandzi International Airport,Dzaoudzi,Mayotte,DZA,-12.8046999,45.28110123,air,,2474e4bd-986d-44e4-8889-fcc853ce5180
Roland Garros Airport,St.-denis,Reunion,RUN,-20.88710022,55.51029968,air,,5583d7e6-c713-4204-afff-4794de09dac8
Pierrefonds Airport,St.-pierre,Reunion,ZSE,-21.32089996,55.42499924,air,,0ff370b4-79c2-463b-b10c-d23006157841
Ivato Airport,Antananarivo,Madagascar,TNR,-18.7969,47.478802,air,,2d352c84-31d2-4afb-a4b5-c1cda3abdcce
Miandrivazo Airport,Miandrivazo,Madagascar,ZVA,-19.56279945,45.45080185,air,,043b26ca-e3ad-4807-b25c-16ff9d1fd5f0
Sainte Marie Airport,Sainte Marie,Madagascar,SMS,-17.09390068,49.81579971,air,,53884458-e280-4b95-8bdd-df77746951aa
Toamasina Airport,Toamasina,Madagascar,TMM,-18.10950089,49.39250183,air,,d75732b6-9cd8-4e7a-8165-56b91c199d3b
Morondava Airport,Morondava,Madagascar,MOQ,-20.28470039,44.31760025,air,,1d54f76b-aca3-46f1-a8f4-b6610f04a377
Arrachart Airport,Antsiranana,Madagascar,DIE,-12.34939957,49.29169846,air,,1ec9eaac-85fc-4f60-bcf5-b0a250008dac
Mananara Nord Airport,Mananara,Madagascar,WMR,-16.16390038,49.7737999,air,,8e854efc-dedf-487a-9eae-f988940b0be9
Andapa Airport,Andapa,Madagascar,ZWA,-14.65170002,49.62060165,air,,2df147e2-76a9-408d-aadf-8b64ab5a0bf0
Ambilobe Airport,Ambilobe,Madagascar,AMB,-13.18840027,48.98799896,air,,107921b7-ea59-4825-a332-192a671d3037
Antsirabato Airport,Antalaha,Madagascar,ANM,-14.99940014,50.32020187,air,,c83a65fa-a520-416d-b5e4-8539264eaee5
Analalava Airport,Analalava,Madagascar,HVA,-14.62969971,47.76380157,air,,f1e8e5bb-db5d-4730-90ca-cd388ec75102
Amborovy Airport,Mahajanga,Madagascar,MJN,-15.66684174,46.35123253,air,,f227d690-af64-4718-9ec6-e56e9694cb7c
Fascene Airport,Nosy-be,Madagascar,NOS,-13.31210041,48.31480026,air,,81c26c58-acc7-45c7-ab7c-4d7d53b471cf
Besalampy Airport,Besalampy,Madagascar,BPY,-16.7445303,44.48248386,air,,9a314741-0f21-41f3-ae59-770684c9670f
Maroantsetra Airport,Maroantsetra,Madagascar,WMN,-15.43669987,49.68830109,air,,02974289-fe7d-474e-a312-099e8023f8d6
Sambava Airport,Sambava,Madagascar,SVB,-14.27859974,50.17470169,air,,19cc7ee6-e721-4f54-9aff-0f4ffc551d0c
Vohimarina Airport,Vohemar,Madagascar,VOH,-13.37580013,50.00279999,air,,92708027-3e9b-4377-8ee9-466323b49bb6
Ambalabe Airport,Antsohihy,Madagascar,WAI,-14.8987999,47.9939003,air,,2b1111f2-a93c-46e8-9249-5b63ea0f5c80
Ampampamena Airport,Ampampamena,Madagascar,IVA,-13.484816,48.632702,air,,ad9d6c63-1132-4800-a205-bf52029336ec
Tôlanaro Airport,Tolagnaro,Madagascar,FTU,-25.03809929,46.95610046,air,,eb427b53-8736-427d-b11d-d35353f51951
Fianarantsoa Airport,Fianarantsoa,Madagascar,WFI,-21.4416008,47.11169815,air,,3979d279-9adb-4400-8756-331a7a979f10
